fe6694a4-c84c-4818-9e2f-30785d0c51d6: '{"name":"PL 269343","numero":"400432","region":"SC","location" :{"lat":50.17411,"lon":-118.49631}}'
5a5ff2fd-b0a7-40d3-9c68-25da1356dc07: '{"name":"PC 266838","numero":"400433","region":"","location" :{"lat":49.0667,"lon":-119.0167}}'
b6cf595d-61ec-4133-bb50-dbc68d3d011c: '{"name":"PC WHITE ELEPHANT","numero":"400434","region":"SC","location" :{"lat":,"lon":}}'
2e2b990e-d4dd-4a5e-9364-2e4f06e7f512: '{"name":"CIQUENAS","numero":"400623","region":"SE","location" :{"lat":49.4,"lon":-119.1}}'
373a39b5-b946-48e4-8e5e-abcf8d76f04f: '{"name":"Demorest Road Pit","numero":"400614","region":"SC","location" :{"lat":50.41306,"lon":-119.17833}}'
179f077f-a216-411c-9f7b-f2f755b84e88: '{"name":"Haddrell Pit","numero":"400615","region":"SC","location" :{"lat":49.6,"lon":-119.75}}'
2c8cc46f-2c09-4185-842c-f3ca34612b7e: '{"name":"TOUGHOAKS","numero":"400618","region":"SC","location" :{"lat":49.45,"lon":-120.95}}'
05c97613-e390-4174-b3e6-e799574a377b: '{"name":"PERKY","numero":"400611","region":"SC","location" :{"lat":49.36667,"lon":-119.78333}}'
583b164b-5868-43d4-8c36-d2e93a43f7e3: '{"name":"Atkinson Road (37351)","numero":"700105","region":"SW","location" :{"lat":49.06778,"lon":-122.16667}}'
9284b4af-4eee-480f-96b2-67134a110813: '{"name":"GREEN RIVER CROSSING","numero":"700109","region":"SW","location" :{"lat":50.20333,"lon":-122.88333}}'
19f43fa3-4196-41cf-a11d-b387b14dbe5b: '{"name":"HUNTER CREEK QUARRY","numero":"700113","region":"SW","location" :{"lat":49.57611,"lon":-121.56444}}'
27a14b63-77da-45a1-a331-0ecf1fe6e930: '{"name":"EAGLE CLAIMS","numero":"700119","region":"SW","location" :{"lat":49.5333333,"lon":-122.0333333}}'
b58e28ce-f208-4967-8dcb-88b6ca5c74c9: '{"name":"MIDAS PLACER CLAIM","numero":"700101","region":"SC","location" :{"lat":50,"lon":-121}}'
a5f084c8-37d6-4a45-b9d9-150de6616963: '{"name":"QUADLING ROAD","numero":"700103","region":"SW","location" :{"lat":49.11083,"lon":-122.11556}}'
46372c76-63ac-4cab-9084-16cc67fdc5ec: '{"name":"KENT GRAVEL PIT","numero":"700067","region":"SW","location" :{"lat":49.26667,"lon":-121.81667}}'
9729bc22-59c1-4a1f-82b3-58e5eaa907fb: '{"name":"Lilbrat 50 s Group","numero":"700068","region":"SW","location" :{"lat":49.0847222,"lon":-121.6033333}}'
55de458d-22d1-445e-b9b0-9863e829e998: '{"name":"GREEN RIVER PIT II","numero":"700400","region":"SW","location" :{"lat":50.17361,"lon":-122.87778}}'
5511c8d2-00d8-4cc0-bef7-af5718e143de: '{"name":"Lefeuvre Road (2366) Gravel Pit","numero":"700402","region":"SW","location" :{"lat":49.03389,"lon":-122.43333}}'
0e5b0831-6fa7-4154-9215-f27311bc54d4: '{"name":"SQUIM CLAIMS","numero":"700394","region":"SW","location" :{"lat":50.16944,"lon":-124.11667}}'
14e68264-7d94-435b-8982-ab5b4ed955a2: '{"name":"POCO PROPERTY","numero":"700397","region":"SW","location" :{"lat":49.3219444,"lon":-122.6666667}}'
bfee310a-96b0-4079-b663-5f919bf3ad04: '{"name":"PLACER LEASE 920","numero":"700383","region":"SW","location" :{"lat":49.37278,"lon":-121.46667}}'
8f049322-6f48-4a5f-b590-108263044e89: '{"name":"Lilbrat 53 Quarry","numero":"700385","region":"SW","location" :{"lat":49.08472,"lon":-121.59667}}'
a1ed91d8-0a18-4664-a14c-506032b4cce0: '{"name":"DOG AND SILVER CLAIM","numero":"700391","region":"SW","location" :{"lat":49.4166667,"lon":-121.4333333}}'
8f09be85-7fcf-4282-abe4-39ee4fc0f7a8: '{"name":"WINFIELD","numero":"400774","region":"","location" :{"lat":50.0166,"lon":-119.4093}}'
73c5b726-0e13-4ec0-930b-65b2e936dd27: '{"name":"RM GROUP","numero":"400768","region":"SE","location" :{"lat":49.08333,"lon":-119.15}}'
c4acf95f-4c70-4821-99fa-2f419bef6c58: '{"name":"STEMCO GROUP","numero":"400460","region":"SE","location" :{"lat":0,"lon":0}}'
83470d43-196c-4c99-bfe1-942e3693603c: '{"name":"LAKEVIEW DIVIDEND,  49 Ventures.","numero":"400453","region":"SC","location" :{"lat":49.01667,"lon":-119.5}}'
666f7b38-7fa5-44e3-8597-dc00ceda59a9: '{"name":"PC 313476","numero":"400455","region":"SE","location" :{"lat":51.65,"lon":-118.5}}'
aeb6d964-c184-4981-aaf0-7ddafdaf0382: '{"name":"FB1 & FB2","numero":"400456","region":"SC","location" :{"lat":,"lon":}}'
3e459a64-af20-4620-aa6a-636cd0364c1b: '{"name":"Giant Copper Property","numero":"700195","region":"SW","location" :{"lat":49.1625,"lon":-121.02556}}'
b0c6d881-5af4-49b4-a3b6-53ade879d9c6: '{"name":"ROTTACKER","numero":"400665","region":"SE","location" :{"lat":50.25,"lon":-118.26667}}'
5ffdc8d2-7223-4c1b-ae40-580fbe4cb443: '{"name":"Mira Grande Pit","numero":"400660","region":"SC","location" :{"lat":,"lon":}}'
995f7e30-f3de-4ebd-9937-86721c727c26: '{"name":"TWIN","numero":"400661","region":"SC","location" :{"lat":50.466667,"lon":-118.25}}'
64a1bad4-ea66-47f4-aa20-f1d5f6d16a2c: '{"name":"PC 336741","numero":"400612","region":"SC","location" :{"lat":50.216667,"lon":-118.75}}'
81e7a3ff-fabd-477e-9140-a86b88781850: '{"name":"LADY BUG","numero":"400608","region":"SC","location" :{"lat":51.083333,"lon":-119.1}}'
461b1df6-5682-43f3-866c-f9e59a0344c8: '{"name":"Dobbin","numero":"400408","region":"SC","location" :{"lat":50.01972,"lon":-119.81167}}'
40639794-b187-44f8-a271-cdb798f0ad38: '{"name":"Alpo","numero":"400588","region":"SC","location" :{"lat":50.38333,"lon":-119.61667}}'
be3cf616-4303-4bc0-aae2-5c5e53615b96: '{"name":"HUL & HUL 1","numero":"400583","region":"","location" :{"lat":49.0958,"lon":-119}}'
9bf4a612-ee56-4ee5-b73f-e6f67f0d8c85: '{"name":"RED WARRIOR","numero":"400385","region":"","location" :{"lat":,"lon":}}'
f0d97137-7a6d-4dd5-9c89-a211bd391378: '{"name":"EM1 EM2","numero":"400386","region":"SE","location" :{"lat":49.03333,"lon":-118.50833}}'
69d1ed2c-ef2a-474b-9a58-246fce2f8fc9: '{"name":"GILPIN PIT","numero":"400380","region":"SC","location" :{"lat":,"lon":}}'
1a2735c7-bd56-4b0a-8b10-951156a383d6: '{"name":"Lilbrat 1 to 8","numero":"700069","region":"SW","location" :{"lat":49.08472,"lon":-121.60333}}'
6d32ae8d-b39e-41b5-9f4a-9e5bbc728c73: '{"name":"Davis Pit","numero":"400584","region":"SC","location" :{"lat":50.78972,"lon":-119.5325}}'
6459359a-0fbd-41b0-bcf4-0de66321a721: '{"name":"Borrow Pit","numero":"400579","region":"SE","location" :{"lat":50.71667,"lon":-118.09444}}'
f78e9758-fcb1-4b74-871b-51cd488294d0: '{"name":"PC 331407 & 331597","numero":"400580","region":"SE","location" :{"lat":51.433333,"lon":-118.533333}}'
933458ca-8bd8-413e-b385-e999abc0cc3d: '{"name":"PL 269364","numero":"400581","region":"SC","location" :{"lat":50.08333,"lon":-118.48333}}'
b96b0b48-3ca6-4de7-a373-7990adb7b1c4: '{"name":"ADAM","numero":"400575","region":"SC","location" :{"lat":,"lon":}}'
7e24941c-9b91-4522-8133-6171f80a7db1: '{"name":"MAC","numero":"400628","region":"SC","location" :{"lat":49.566667,"lon":-120.083333}}'
7d6c7c74-213b-42ac-b07a-030724edf856: '{"name":"ALARIC","numero":"400630","region":"SC","location" :{"lat":49.58333,"lon":-120.1}}'
1b74e1a2-3a9d-49ea-9d63-5f0589a3561e: '{"name":"CHOPAKA","numero":"400769","region":"SC","location" :{"lat":,"lon":}}'
15f4af3c-8ec3-483a-9840-1f087cfd2edc: '{"name":"VIOLET (GLORY)","numero":"400770","region":"SC","location" :{"lat":50.65,"lon":-119.1}}'
62414a0c-e478-4fe0-9658-a921015cbf6d: '{"name":"BLUEJAY","numero":"400764","region":"SC","location" :{"lat":50,"lon":-119}}'
6f344605-72a7-4fea-9228-212dba882e14: '{"name":"MICARIFT","numero":"400765","region":"SC","location" :{"lat":,"lon":}}'
5711c253-4a5f-4b1a-8826-50577e411ea8: '{"name":"James Pit","numero":"400759","region":"SC","location" :{"lat":50.80338,"lon":-119.3119}}'
4f4900a6-f489-4abd-a2e6-91941bfa24b9: '{"name":"BART","numero":"400760","region":"SC","location" :{"lat":,"lon":}}'
15280047-8373-4ffe-a86a-2028d8b5a2fe: '{"name":"PC 269403","numero":"400762","region":"SC","location" :{"lat":50.09389,"lon":-118.46833}}'
0c52520a-f94c-407b-8eda-3e9df7a0dbe9: '{"name":"Hyde-Buker Road (3600)","numero":"700645","region":"SW","location" :{"lat":49.135556,"lon":-122.225556}}'
ffa978cb-433c-430d-aaab-7acda05e6b7f: '{"name":"BOTTOM CLAIM","numero":"400772","region":"SC","location" :{"lat":,"lon":}}'
5d96995b-f488-4025-bbea-b1a74562d5b8: '{"name":"PC 316135","numero":"400532","region":"SC","location" :{"lat":50.06667,"lon":-118.5}}'
79b674aa-367c-42ee-9860-3258a9ffadf4: '{"name":"OLEEN","numero":"400525","region":"SC","location" :{"lat":50.5,"lon":-118.966667}}'
d05b1c4c-5504-4635-9442-804e83a728bb: '{"name":"BLAIR CREEK","numero":"400526","region":"SC","location" :{"lat":50.566667,"lon":-119.583333}}'
dd1530cd-d296-471b-bfcc-9a4e0e5d760e: '{"name":"Wigwam (Standfast, Badshot & Galena Peaks)","numero":"400463","region":"SE","location" :{"lat":50.8,"lon":-117.96667}}'
0ac389fc-ce1c-451d-87c0-e238718e190b: '{"name":"Rainbow Creek Ranch Pit","numero":"400464","region":"SC","location" :{"lat":50.9,"lon":-119.68333}}'
72d2cf31-5e14-40ec-b5ec-40c7a20d428e: '{"name":"GLORIA ROSE","numero":"400457","region":"SC","location" :{"lat":50.21667,"lon":-119.53333}}'
591f6a99-29c8-4ae6-9e22-b02edce99184: '{"name":"PC 317637","numero":"400459","region":"SC","location" :{"lat":50.11612,"lon":-118.42022}}'
b034296a-6217-4768-acc0-3dd13a8e5d2b: '{"name":"COR","numero":"400631","region":"SE","location" :{"lat":49.25,"lon":-118.46667}}'
a1f79839-6264-46a6-956e-ff5fbc02e51e: '{"name":"BST","numero":"400624","region":"SC","location" :{"lat":50.208333,"lon":-119.625}}'
f1a26c2f-1ee0-4c28-bd2d-facb6391a0e1: '{"name":"IDA","numero":"400627","region":"SC","location" :{"lat":49.7,"lon":-119.233333}}'
f40fe94a-344c-4ec8-b409-608553aadacc: '{"name":"OSO 1-8 LIFE O RILEY","numero":"400427","region":"SC","location" :{"lat":49.183333,"lon":-119.583333}}'
bcc871c6-9992-4de0-9c7c-aee088ea80be: '{"name":"Barnaby Road Pit","numero":"400421","region":"SC","location" :{"lat":0,"lon":0}}'
77877919-040e-42b1-8405-8db7dffa1633: '{"name":"Brenda Road Pit","numero":"400422","region":"SC","location" :{"lat":49.78417,"lon":-119.8325}}'
7bf7f14c-b95d-4f95-b2e0-0e4f2e4cdc7c: '{"name":"Crow-Rea","numero":"400609","region":"SC","location" :{"lat":49.66361,"lon":-120.05}}'
4f411aed-1f2a-4c65-b781-bebc647aad5c: '{"name":"EM 1 & EM 2","numero":"400389","region":"","location" :{"lat":,"lon":}}'
24f30afe-2ad7-4c4c-b4df-9a60d0133be6: '{"name":"TWIN LAKES","numero":"400556","region":"SC","location" :{"lat":49.26806,"lon":-119.68472}}'
6ac2efca-4e89-41ac-aef9-b48118e492a9: '{"name":"SLAVAKA","numero":"400552","region":"SC","location" :{"lat":49.9667,"lon":-119.4333}}'
c44f3c53-742d-4079-81b4-9d458e3234b8: '{"name":"DON","numero":"400553","region":"SC","location" :{"lat":49.9667,"lon":-119.4333}}'
30c0a6cb-fadf-4ba1-a55f-723fdde74765: '{"name":"PC 312640","numero":"400549","region":"SE","location" :{"lat":49.13333,"lon":-119.13333}}'
1592698c-bce4-45da-8a12-07f2e81cf323: '{"name":"CHEN","numero":"400550","region":"SC","location" :{"lat":49.91667,"lon":-120.31667}}'
bc94d312-c0e9-4998-a35f-9d1ea6900c99: '{"name":"COUNTRY ROCK","numero":"400551","region":"SC","location" :{"lat":50.616667,"lon":-118.616667}}'
f80675db-4673-4be5-885b-5953a44d8127: '{"name":"Revelstoke Dam Quarry","numero":"400547","region":"SE","location" :{"lat":51.06667,"lon":-118.2}}'
a7d7c36d-a4cd-4088-b0e3-39cf156569ed: '{"name":"MARGIE CLAIM","numero":"700646","region":"SW","location" :{"lat":49.4166667,"lon":-121.4333333}}'
7299ab27-1a2b-411b-b8a4-09279b3390c9: '{"name":"SAFFER","numero":"700641","region":"SW","location" :{"lat":49.4575,"lon":-121.45}}'
1504de49-9c47-4684-97f3-d161e9f1fed1: '{"name":"MARSHALL ROAD (29996)","numero":"700322","region":"SW","location" :{"lat":49.033889,"lon":-122.4}}'
a8d2eff5-b1b4-4d85-ab49-058b4b2cec3e: '{"name":"W8 GREEN RIVER","numero":"700299","region":"SW","location" :{"lat":50.16361,"lon":-122.89889}}'
0c52b6e2-a12b-40f1-a92e-84a3eb138b46: '{"name":"Pebbles Gravel Pit  (LeFeuvre Road (2244))","numero":"700306","region":"SW","location" :{"lat":49.03389,"lon":-122.44611}}'
3c07dd41-a1a1-4a0a-8343-c4172aa9bbf1: '{"name":"128th Avenue (25927)","numero":"700312","region":"SW","location" :{"lat":49.23583,"lon":-122.50583}}'
fafc30f3-0d05-42ea-a004-cf18a0fd5944: '{"name":"Colby Placer Claims (PC #106)","numero":"700295","region":"SW","location" :{"lat":49.89806,"lon":-121.7}}'
6339f721-9751-4ae1-b50d-18403151987b: '{"name":"LAD MINERAL CLAIMS","numero":"700297","region":"SW","location" :{"lat":49.525278,"lon":-121.25}}'
0bc52e10-911a-40c4-86ff-7624c3ea6d74: '{"name":"CATSEYE","numero":"400663","region":"SE","location" :{"lat":51.5,"lon":-118.25}}'
ffe536d1-3e57-47a5-8e63-cf0a28685166: '{"name":"AU 1 & AU 2","numero":"400655","region":"SE","location" :{"lat":51.65111,"lon":-118.64944}}'
94c642e3-2c4e-4c47-a16f-1763fc1dda98: '{"name":"Casorso Pit","numero":"400657","region":"","location" :{"lat":49.8446,"lon":-119.4601}}'
5ef8639a-7651-4974-8448-76d95be5749b: '{"name":"Eichhorst Quarry","numero":"400659","region":"SC","location" :{"lat":49.87667,"lon":-119.32556}}'
2080543c-eadd-4391-8001-ea444e299b47: '{"name":"BRIDESVILLE PIT","numero":"400443","region":"SE","location" :{"lat":,"lon":}}'
05c671ab-9bec-4f89-af8b-86c1a7f586a4: '{"name":"315348","numero":"400436","region":"","location" :{"lat":,"lon":}}'
d70c15e1-a682-40d8-8c06-5a513b238136: '{"name":"ORO 1-4","numero":"400438","region":"SC","location" :{"lat":49.183333,"lon":-119.6}}'
23054bb1-ff81-4e69-996b-6ee8e2fd7bb4: '{"name":"Silver Skagit Road (19583/86)","numero":"700602","region":"SW","location" :{"lat":49.35583,"lon":-121.475}}'
06eaca81-1490-412e-91c0-063a8ba60dc2: '{"name":"GOLDEN KETTLE 1 & 2","numero":"400603","region":"SC","location" :{"lat":50.466667,"lon":-118.933333}}'
26a72cf5-da1f-4264-b8ae-635c28c0c120: '{"name":"GROUNDHOG BASIN","numero":"400605","region":"SE","location" :{"lat":51.69778,"lon":-118.345}}'
01b4576f-7901-4cec-ae53-cff0f6dfb4a7: '{"name":"G.C. PROPERTY","numero":"400606","region":"","location" :{"lat":49,"lon":-119}}'
79bbb1cc-7da6-4179-8e38-e13650a90b4c: '{"name":"ALLENDALE LAKE","numero":"400600","region":"SC","location" :{"lat":49.31667,"lon":-119.21667}}'
4c88556b-2022-4f2c-b336-c2a2874dcbc0: '{"name":"Andre Pit","numero":"400602","region":"SC","location" :{"lat":49.18333,"lon":-119.56667}}'
e70f5ed1-b46f-4f15-8ac9-4e77899829f8: '{"name":"SMITH","numero":"400597","region":"SE","location" :{"lat":49.45,"lon":-118.833333}}'
4cfb18a8-7b05-44ab-9324-77136872532e: '{"name":"KATE","numero":"400599","region":"","location" :{"lat":49.3833,"lon":-119.1}}'
2ac08c66-4ad9-4a8f-9134-e1319c981487: '{"name":"PC 330696","numero":"400577","region":"SC","location" :{"lat":49.733333,"lon":-120.15}}'
615b62d6-4442-4fee-9177-61e0b6b78abd: '{"name":"GOLD STAR","numero":"400548","region":"SC","location" :{"lat":50.23333,"lon":-119.68333}}'
e086aa17-4b57-40bc-b7e8-2e091ff3e04b: '{"name":"CHRIS CLAIM GROUP","numero":"400519","region":"SC","location" :{"lat":49.1667,"lon":-119.0333}}'
cc5bf82a-445d-45da-9979-35568ac8bdd9: '{"name":"DOLLY MARBLE PROP.","numero":"400521","region":"SE","location" :{"lat":51.65,"lon":-118.58333}}'
74d519f9-70e9-4c5a-a5dd-0fe67c4cbbf8: '{"name":"JESSIE 1, JESSIE 2","numero":"400516","region":"SC","location" :{"lat":49.716667,"lon":-120.033333}}'
c8b04d3c-1d23-43fe-bd3a-f863e38c29b5: '{"name":"PC JAYDEE","numero":"400517","region":"SC","location" :{"lat":50.133333,"lon":-118.45}}'
49db4e86-91cb-4b7c-8d97-b49c03af853b: '{"name":"G & G 1","numero":"400518","region":"","location" :{"lat":49.15,"lon":-118.4167}}'
27771ab3-40a9-4d05-86ad-31ce38ef431c: '{"name":"DREAM","numero":"400513","region":"","location" :{"lat":49.0167,"lon":-119.2333}}'
c42130d7-0f35-4858-8647-826c76978120: '{"name":"DELISLE 2","numero":"400326","region":"SC","location" :{"lat":51,"lon":-119.16667}}'
b5b47170-5357-4a82-b369-450d37f965ca: '{"name":"THE CLAIM","numero":"400469","region":"SC","location" :{"lat":50.35,"lon":-118.75}}'
701cdc51-3cb2-4cce-b1c4-967231abc093: '{"name":"PC 266845","numero":"400470","region":"","location" :{"lat":,"lon":}}'
2a18dd52-9672-45b3-a7af-52954cfaa27f: '{"name":"HORNET 1 TO 19","numero":"400471","region":"","location" :{"lat":49.1833,"lon":-118.4167}}'
6a5c576a-6cb1-4e13-992b-2a340253779f: '{"name":"BECA","numero":"400465","region":"SC","location" :{"lat":51.05,"lon":-119.7}}'
7ccfb881-c4f4-49a4-868d-ae1f6ab9a216: '{"name":"ANNIE","numero":"400466","region":"SC","location" :{"lat":,"lon":}}'
d3ff6cf7-25f9-4b21-ba1f-34dd6bd31f61: '{"name":"DAN 32","numero":"400468","region":"SC","location" :{"lat":50.3333,"lon":-119.5667}}'
6af47ab7-8657-499f-80d0-d1e297cb0b93: '{"name":"KENNY GROUP","numero":"400461","region":"","location" :{"lat":,"lon":}}'
0f155678-131c-430c-ac7e-c53c76b2321d: '{"name":"Jasmine 3","numero":"700618","region":"SW","location" :{"lat":49.97472,"lon":-123.22194}}'
f1ba1030-3df6-4319-b324-463f5f1bc2c5: '{"name":"Cartmell Road","numero":"700605","region":"SW","location" :{"lat":49.18639,"lon":-121.96667}}'
8189ad54-3cb9-4509-8811-9a732e9053f2: '{"name":"DAWN GRAVEL PIT 1","numero":"700594","region":"SW","location" :{"lat":49.2916667,"lon":-122.4666667}}'
d2f99d60-53ab-40c8-98f6-0b8159c35690: '{"name":"Dewdney Truck Road (32122) - Pit #3","numero":"700599","region":"SW","location" :{"lat":49.23722,"lon":-122.31667}}'
8b09d957-7f71-453e-ab53-1a28de90374d: '{"name":"PAUL MINERAL CLAIM","numero":"700589","region":"SW","location" :{"lat":49.067778,"lon":-121.366667}}'
5fd67e1b-4c19-48cb-9882-bf8cb58798fe: '{"name":"PLACER CLAIM 267980","numero":"700590","region":"SW","location" :{"lat":50,"lon":-122.5}}'
1b9aa588-d163-47e3-8907-1d5aa991baca: '{"name":"BLACK LIME GROUP","numero":"400384","region":"SE","location" :{"lat":49.05,"lon":-118.51667}}'
33deaed2-f558-4cd7-8c5a-bf25f99d7796: '{"name":"COLUMBIA ROAD (1360)","numero":"700527","region":"SW","location" :{"lat":49.02639,"lon":-122.32611}}'
807ae326-f4f5-4299-81a7-5c78fa17105f: '{"name":"Delete","numero":"700528","region":"","location" :{"lat":,"lon":}}'
5aea9ed1-ccda-4272-9bd3-636c67113181: '{"name":"BORROW PIT E","numero":"400578","region":"SC","location" :{"lat":50.6972,"lon":-118.0917}}'
57c6cae1-467b-4c1d-ab81-681a085e3413: '{"name":"PC 268828","numero":"400573","region":"SE","location" :{"lat":51.66667,"lon":-118.5}}'
27e14935-9295-4ebd-9aee-63b16b7074cf: '{"name":"PC 315646 & 315647","numero":"400574","region":"SE","location" :{"lat":51.65,"lon":-118.666667}}'
b93eada3-c3fd-4a5a-a770-5bf6d3daf7e3: '{"name":"EAGLE","numero":"400373","region":"","location" :{"lat":,"lon":}}'
cb8cd563-296b-4ce3-b32f-ba71cc93a683: '{"name":"SAKURA","numero":"400374","region":"SE","location" :{"lat":49.33333,"lon":-119.05}}'
054bdf9b-d8ff-439a-a9bb-3fb8b8edceac: '{"name":"NOREEN","numero":"400368","region":"SC","location" :{"lat":50.633333,"lon":-118.7}}'
8415b313-4a96-497f-909a-70a8c1cf9639: '{"name":"Silver 1 & 2","numero":"400369","region":"SC","location" :{"lat":,"lon":}}'
b1d90264-7449-4f79-ac2f-9e74e3cf569b: '{"name":"MONASHEE","numero":"400371","region":"SC","location" :{"lat":50.18148,"lon":-118.38059}}'
857a7147-c9f6-46e9-b0d1-82d4e7122b9e: '{"name":"MIC MAC","numero":"400327","region":"","location" :{"lat":,"lon":}}'
0156541a-ddee-4a4e-a943-b8bcc4de09f9: '{"name":"AIRPORT PIT","numero":"700316","region":"SW","location" :{"lat":49.77528,"lon":-123.16556}}'
07fa94e0-58d9-447c-bd05-7b282a1c0f4c: '{"name":"ADAMSPLATEAU","numero":"400753","region":"SC","location" :{"lat":,"lon":}}'
518d394b-43dc-4a9b-8a18-aa3f85b4575c: '{"name":"GOLDSTREAMWEST","numero":"400756","region":"SE","location" :{"lat":51.63333,"lon":-118.43333}}'
61a7bffa-0c7f-4da0-a2c7-3f8fc6500ce1: '{"name":"HOSKINSCREEK","numero":"400757","region":"SC","location" :{"lat":,"lon":}}'
9c8d3831-a870-4b62-8b1d-e4c996cf90f5: '{"name":"NICHOLLSCREEK","numero":"400758","region":"SC","location" :{"lat":,"lon":}}'
d55cdd92-70a6-4dcb-beaa-7574c45fb9ff: '{"name":"LANARK","numero":"400750","region":"SE","location" :{"lat":51.23333,"lon":-117.73333}}'
5c918cd4-d139-4e7c-9a14-e84a1b7224e9: '{"name":"PC 2","numero":"400751","region":"","location" :{"lat":,"lon":}}'
269e6680-d058-4a9c-82d4-7215d43b7cec: '{"name":"Nash","numero":"400514","region":"SC","location" :{"lat":50.283333,"lon":-119.6}}'
6fd8a930-2d60-4428-b40e-9a3fff80464f: '{"name":"PC 319531","numero":"400508","region":"SC","location" :{"lat":49.7175,"lon":-120.15}}'
88926e20-5389-48e9-a3a6-c1e9fda53ce9: '{"name":"FRENCH CREEK","numero":"400509","region":"SE","location" :{"lat":51.65,"lon":-118.41667}}'
a49d5936-90b5-4568-b4f7-79c0a9559672: '{"name":"FRANK","numero":"400510","region":"SC","location" :{"lat":49.95,"lon":-119.416667}}'
e85cbb43-b175-430f-b8cb-beb0790644e7: '{"name":"PC 322995","numero":"400504","region":"SC","location" :{"lat":50.1,"lon":-118.433333}}'
5d29b39f-2820-45e6-9cf1-d5714ad54567: '{"name":"OSOYOOS AGGREGATES","numero":"400505","region":"","location" :{"lat":,"lon":}}'
b7a26950-823a-4de2-b3c7-028d1e28f74b: '{"name":"Copper Queen","numero":"400506","region":"SE","location" :{"lat":51.24603,"lon":-118.21106}}'
ecfb99fb-4020-4b43-a009-fea4cff5a90b: '{"name":"PC 36 (Big Blue)","numero":"400501","region":"SC","location" :{"lat":50.166667,"lon":-118.583333}}'
9786bb9c-f395-44d8-b664-71827b305922: '{"name":"LEFEUVRE ROAD (2071 AND 2133)","numero":"700520","region":"SW","location" :{"lat":49.03389,"lon":-122.43333}}'
a3aacdab-d3d9-4392-bca0-09940e7b4a35: '{"name":"EMMA","numero":"700522","region":"SW","location" :{"lat":49.0338889,"lon":-121.6166667}}'
a93b4afc-3231-4753-b574-4163812d2c3c: '{"name":"RW Claims","numero":"700524","region":"SW","location" :{"lat":49.6055556,"lon":-123.8805556}}'
82c67728-719c-4745-a549-e8ee3fb8e4d4: '{"name":"PARISH 2 CLAIM","numero":"700509","region":"SW","location" :{"lat":49.34444,"lon":-121.59167}}'
347e76fc-7637-454a-a6d4-b0c310069aa9: '{"name":"VALLEY 1","numero":"700513","region":"SW","location" :{"lat":49.7833333,"lon":-121.8333333}}'
bd3b5f0c-e148-4b93-be10-a211ce7a4d3c: '{"name":"BOBA 1 PLACER CLAIM","numero":"700519","region":"SW","location" :{"lat":49.5625,"lon":-121.40083}}'
35d943d6-75aa-4127-a1cf-eb1864d03b9e: '{"name":"BLUE HERON CLAIMS","numero":"700570","region":"SW","location" :{"lat":49.5833333,"lon":-121.7333333}}'
3374d7e4-e653-439d-979e-4ddda7e75ed0: '{"name":"VYE ROAD PIT (34191)","numero":"700239","region":"SW","location" :{"lat":49.01743,"lon":-122.27666}}'
e1743199-e1dd-4ad2-9239-21e129c9024d: '{"name":"CHUCK GROUP CLAIMS","numero":"700242","region":"SW","location" :{"lat":49.0677778,"lon":-121.6}}'
a2d324b2-986c-403d-a4f9-af266dd2e31e: '{"name":"Pine Grove Pit","numero":"400423","region":"SC","location" :{"lat":50.01889,"lon":-119.41917}}'
24e4d5fb-fee4-4dcf-803c-22d110a3e8f0: '{"name":"PEM","numero":"400416","region":"SC","location" :{"lat":50.8,"lon":-119.96667}}'
2b9aa731-5eaa-414c-b60b-101f966077a4: '{"name":"MCDONALD PIT","numero":"400417","region":"SC","location" :{"lat":,"lon":}}'
ad94d8e9-ba60-4c31-9b5f-6727c362d92e: '{"name":"Boundary Pit","numero":"400418","region":"SC","location" :{"lat":49.01207,"lon":-119.48813}}'
fdde4f25-a784-46ea-8921-1e2a3fa714f6: '{"name":"Vernon Paving","numero":"400413","region":"SC","location" :{"lat":50.40505,"lon":-119.19895}}'
e9495ddc-b8bb-460d-9ebf-5874bfe8b77b: '{"name":"Silver Star Pit","numero":"400414","region":"SC","location" :{"lat":50.5525,"lon":-119.22917}}'
f2535282-8cbf-4d7e-98c5-d6e3ccfcdcb7: '{"name":"Freeman Group","numero":"700545","region":"SW","location" :{"lat":49.98083,"lon":-123.17056}}'
ecd5f850-3a8d-4a40-a301-1cca7a3acde6: '{"name":"DELETE","numero":"700547","region":"","location" :{"lat":,"lon":}}'
509d85d7-60b6-46c7-b859-e1e9af4e6578: '{"name":"PC 88 Gold 1","numero":"400745","region":"SC","location" :{"lat":,"lon":}}'
9234558b-1009-437d-926b-e32e3ffd5ecb: '{"name":"BREW","numero":"400746","region":"SE","location" :{"lat":51.53333,"lon":-118.33333}}'
246a5b29-e213-49a6-8ba4-15420efac2b2: '{"name":"Hillsbar","numero":"700636","region":"SW","location" :{"lat":49.55,"lon":-121.36667}}'
003e455c-6124-4bc4-a64d-8378cbe04c4f: '{"name":"WALDEN AND DEBDEN","numero":"700625","region":"SW","location" :{"lat":49.423611,"lon":-121.45}}'
dcd825e6-7093-4f5f-bf0d-0333ae8d700e: '{"name":"KRM PROPERTY","numero":"700629","region":"SW","location" :{"lat":49.077682,"lon":-121.702334}}'
b7eb374d-20b2-4da2-809d-e0518d9a56a7: '{"name":"Slide","numero":"700631","region":"SW","location" :{"lat":50.15161,"lon":-123.40042}}'
a3e875bf-a83a-4968-93c3-9dcea1ec190f: '{"name":"PLACER CLAIMS 313466 TO 313475","numero":"700622","region":"SW","location" :{"lat":49.7625,"lon":-122.16667}}'
7f14f5dc-4653-4cf5-bcc6-f53868ded9da: '{"name":"Sasha Claims, Yale","numero":"700624","region":"SW","location" :{"lat":49.0833333,"lon":-121.25}}'
cdfc4a05-3bef-4ac3-afb1-b1d790e2e143: '{"name":"Pipeline Road Pits B, C and M","numero":"700008","region":"SW","location" :{"lat":49.31667,"lon":-122.775}}'
df6b7bca-b3aa-47a6-a884-18a88ad0b015: '{"name":"HIGHWAY 99 PIT","numero":"700013","region":"SW","location" :{"lat":49.67778,"lon":-123.16667}}'
662f9caf-d8c8-45b8-afe2-e6db0f27b5ea: '{"name":"NORM 1 - 10","numero":"400545","region":"SC","location" :{"lat":49.216667,"lon":-120.616667}}'
2d647b77-d25d-44a2-ac87-4d3d5d4a863e: '{"name":"PC 266813","numero":"400539","region":"SE","location" :{"lat":49.033333,"lon":-119.166667}}'
c4529d31-b629-4d65-b716-11e2dd5e26f3: '{"name":"FROSTY I & II","numero":"400541","region":"SC","location" :{"lat":50.16667,"lon":-118.46667}}'
c9a9b3f6-6a50-4a44-88a1-ce3f3bb48b96: '{"name":"Cottonbelt","numero":"400536","region":"","location" :{"lat":51.4333,"lon":-118.8167}}'
9024dcc0-94e3-4fb9-8967-b50a8e1ff76c: '{"name":"TRAVIS","numero":"400538","region":"SC","location" :{"lat":49.783333,"lon":-120.066667}}'
6336b221-bce1-4739-bda2-8fa2eb5215b2: '{"name":"Jim 1-4","numero":"400533","region":"SC","location" :{"lat":49.2181,"lon":-119.5967}}'
b6ed1598-b7e2-4ae1-bc2e-f4e474caf310: '{"name":"Emancipation","numero":"700244","region":"SW","location" :{"lat":49.50833,"lon":-121.25}}'
db54194f-cf89-4e3f-8612-aec1bcbe6d72: '{"name":"KEIKO PROPERTY","numero":"700222","region":"SW","location" :{"lat":49.35583,"lon":-121.85}}'
65a12db7-ed7b-426e-bda7-5c56108074dc: '{"name":"TOWN PIT","numero":"700227","region":"SW","location" :{"lat":49.41528,"lon":-123.54028}}'
1cc88486-4e53-4870-a586-2ed1b9c0e7aa: '{"name":"PEMBERTON PUMICE","numero":"700204","region":"SW","location" :{"lat":50.67778,"lon":-122.43333}}'
e43bcc0c-3793-41de-a6ea-194809eb169a: '{"name":"SUE","numero":"700207","region":"SW","location" :{"lat":50.2,"lon":-122.9833333}}'
f16fb8a9-3bda-49e5-81b4-75c3b60decb1: '{"name":"Sechelt and Black Granite,  Sechelt Carbonate, 0700525","numero":"700209","region":"SW","location" :{"lat":49.5,"lon":-123.83333}}'
57a00d82-1fc7-478b-a302-7595d1587e1c: '{"name":"MOSS CLAIM","numero":"400652","region":"SC","location" :{"lat":50.49389,"lon":-119.83306}}'
b192df4a-91d5-4f32-8bf9-229f251e950b: '{"name":"Gem Gravel Products Pit","numero":"400654","region":"SC","location" :{"lat":50.97417,"lon":-119.22917}}'
3b9dd00f-5346-4e8d-a498-f648c3a786d6: '{"name":"MARCH CREEK","numero":"400593","region":"SE","location" :{"lat":49.01667,"lon":-118.91667}}'
17df1a41-ba31-498c-9203-d5885e66c106: '{"name":"Ruddock Creek","numero":"400396","region":"SC","location" :{"lat":51.773,"lon":-118.913}}'
1a9671d8-e70e-43a0-84ae-b4520a0bc760: '{"name":"FX-21","numero":"400398","region":"SC","location" :{"lat":50.73333,"lon":-118.73333}}'
c082a0c3-d735-4d76-a7bc-a0fb3cbc5026: '{"name":"MIGHTY WHITE","numero":"400399","region":"","location" :{"lat":,"lon":}}'
ea1f6830-20c7-45ba-9891-d92abb110a38: '{"name":"Albert Canyon Quarry","numero":"400393","region":"SE","location" :{"lat":51.13356,"lon":-117.8775}}'
1cf93f86-4b82-4635-95e8-e29a40937ba4: '{"name":"Excalibur Pit","numero":"400394","region":"","location" :{"lat":50,"lon":-119}}'
89835607-7fa5-46b4-b094-f2a13fb56d5e: '{"name":"Mission Ridge Pit","numero":"400395","region":"SC","location" :{"lat":,"lon":}}'
b778d86c-ae68-48e5-a7de-13c11b5dff89: '{"name":"COPPER MOUNTAIN","numero":"400388","region":"","location" :{"lat":,"lon":}}'
fcce9e39-9110-43f8-a752-82b2d5548273: '{"name":"CONTACT, ANNA, GRACE","numero":"700293","region":"SW","location" :{"lat":49.288056,"lon":-121.733333}}'
591d5eb9-217d-4be9-94e8-1b73a8c63c9d: '{"name":"FLANNERY PIT","numero":"700282","region":"SW","location" :{"lat":50.27111,"lon":-122.86667}}'
53cd8292-9ff2-4759-bec2-e9d6363e4661: '{"name":"PEMBERTON FARM ROAD EAST (7375)","numero":"700284","region":"SW","location" :{"lat":50.31833,"lon":-122.75778}}'
e11d94d7-9807-4439-8ace-bcf9967f0e3a: '{"name":"DEBBY 1 - 8","numero":"400544","region":"SE","location" :{"lat":51.7,"lon":-118.466667}}'
71639ad4-d510-4866-bc49-0498ffda1140: '{"name":"PC 268868 ET AL","numero":"400356","region":"SE","location" :{"lat":51.677778,"lon":-118.614722}}'
7753c1c0-f6d0-4823-9df3-348f61e9b69c: '{"name":"CLEARCUT","numero":"400357","region":"SE","location" :{"lat":49.68333,"lon":-118.66667}}'
c25b2072-8498-40dc-958e-620c154cea33: '{"name":"PL 18669","numero":"400359","region":"SC","location" :{"lat":,"lon":}}'
58c4e492-9ffa-4fc9-813c-f1b2c7f569af: '{"name":"FERRY","numero":"400352","region":"SC","location" :{"lat":50.2,"lon":-118.63333}}'
1a3e4372-4ca6-4811-bc41-803fc4f6439e: '{"name":"L & N PIT","numero":"700411","region":"SW","location" :{"lat":49.35583,"lon":-121.46111}}'
5d94e7de-1c3e-4014-99a9-aefc68b1e9ba: '{"name":"Quadling Quarry","numero":"700412","region":"SW","location" :{"lat":49.11592,"lon":-122.11236}}'
4cfad8dd-0a68-45a8-ba84-2ae557d63edf: '{"name":"Tower Road (11045)","numero":"700403","region":"SW","location" :{"lat":49.20333,"lon":-121.94722}}'
b36047b2-1250-4547-8238-865155805786: '{"name":"PAGE ROAD QUARRY","numero":"700404","region":"SW","location" :{"lat":49.12634,"lon":-122.21814}}'
d4bc9f70-4aeb-444e-916b-ea803e1e960a: '{"name":"16th Avenue(19070)","numero":"700408","region":"SW","location" :{"lat":49.0169444,"lon":-122.6833333}}'
73d53bb6-121b-4f38-966e-52b1552f403b: '{"name":"CARTMELL ROAD (45745) AND YOUNG ROAD NORTH (10609)","numero":"700015","region":"SW","location" :{"lat":49.2,"lon":-121.95}}'
2f76a0fc-c94b-45ef-96b5-c8eea0a02a1f: '{"name":"North Parkhurst Pit","numero":"700016","region":"SW","location" :{"lat":50.07833,"lon":-123.055}}'
c3c2141e-69aa-4586-982a-707a5055c007: '{"name":"DELETE","numero":"700005","region":"","location" :{"lat":,"lon":}}'
9af87e7f-7d2a-4184-bcef-832c24fec45d: '{"name":"DELETE","numero":"700006","region":"","location" :{"lat":,"lon":}}'
0cf1b221-137a-45a3-ae4b-88a5d606b1ec: '{"name":"PC 305977","numero":"400451","region":"","location" :{"lat":49.0833,"lon":-119.1333}}'
579952be-5562-4b72-aeeb-08783cb411fa: '{"name":"HORSESHOE","numero":"400452","region":"SC","location" :{"lat":49.2525,"lon":-120.000833}}'
78d99b40-3484-4d9a-ac2d-cfc9dcec3e05: '{"name":"Clier Lake Marl Pit","numero":"400444","region":"SC","location" :{"lat":0,"lon":0}}'
be645f13-cebe-41c1-8dd5-5675f770e0df: '{"name":"F.B. 5-6","numero":"400445","region":"SC","location" :{"lat":50.28333,"lon":-119.16667}}'
3d13f7a8-03ff-4eca-b346-f1cf9512ba91: '{"name":"STONEY FLATS PIT","numero":"400440","region":"SC","location" :{"lat":,"lon":}}'
dede7635-20b6-4218-ac8b-a931b7dfa441: '{"name":"Suzi","numero":"400441","region":"","location" :{"lat":,"lon":}}'
4b6f2c15-6b65-4118-80bd-9b2b04ed5480: '{"name":"ALDERCREEK STABLES PIT","numero":"700592","region":"SW","location" :{"lat":49.050833,"lon":-122.5}}'
1922dbbf-8916-42ff-993b-bc42241408d6: '{"name":"SPUMONI QUARRY","numero":"700593","region":"SW","location" :{"lat":49.88111,"lon":-123.11667}}'
1e164cb1-90eb-49e7-8acf-2088e9a3c20a: '{"name":"EHOLT 4","numero":"400381","region":"SE","location" :{"lat":49.16667,"lon":-118.53333}}'
ace9359f-b24a-4911-9c7b-0e7c79cf275e: '{"name":"AKOLKOLEX","numero":"400383","region":"SE","location" :{"lat":50.825,"lon":-118.033333}}'
9017604c-74de-42d2-aa3d-9cc01a73d9c0: '{"name":"ROY 1,2 & VICTORIA","numero":"400376","region":"SC","location" :{"lat":49.30826,"lon":-119.63695}}'
4251eb33-247e-4a68-9ffd-c85fe4a26925: '{"name":"315347","numero":"400435","region":"","location" :{"lat":,"lon":}}'
1786102a-61a6-406a-8597-bb50feebd11f: '{"name":"WINFIELD PIT","numero":"400428","region":"SC","location" :{"lat":,"lon":}}'
f051ad7f-7c83-48dc-8a94-e3e7b8e33f15: '{"name":"RICHTER","numero":"400430","region":"SC","location" :{"lat":,"lon":}}'
fa0d9b63-1a27-4033-a583-2b64f52e334a: '{"name":"Westlake Pit","numero":"400426","region":"SC","location" :{"lat":49.86988,"lon":-119.5684}}'
9d19b0fe-a8ce-4a98-b4c3-755030b43471: '{"name":"BLUE MINERAL CLAIMS","numero":"700564","region":"SW","location" :{"lat":49.44056,"lon":-122.05}}'
4509e349-b246-445d-923b-02bc82adee5a: '{"name":"Elkhorn","numero":"400355","region":"","location" :{"lat":,"lon":}}'
1a395faa-d87f-4ec0-87fb-5accc838c538: '{"name":"ALCO","numero":"400349","region":"SE","location" :{"lat":49.51667,"lon":-118.38333}}'
f2d0eadd-040d-444d-8bff-d97907e87193: '{"name":"THIMBLE","numero":"400350","region":"","location" :{"lat":,"lon":}}'
3af8bf37-edd8-4840-b92b-98b147ec8442: '{"name":"STAR","numero":"400351","region":"SC","location" :{"lat":49.68333,"lon":-119.25}}'
0acab424-e796-40d7-9ad7-487929f865ca: '{"name":"Kampe Pit","numero":"400328","region":"SC","location" :{"lat":49.491245,"lon":-119.543566}}'
5ff0accc-0626-431c-85ba-b13c9e493860: '{"name":"PC COLD AS HADES","numero":"400322","region":"SC","location" :{"lat":,"lon":}}'
f913ba6b-fd75-426f-91f0-9e4a24e51733: '{"name":"NSM","numero":"400323","region":"SC","location" :{"lat":50,"lon":-118.66667}}'
361d1e97-0664-4989-9e60-7de439a592a0: '{"name":"LOU","numero":"400325","region":"","location" :{"lat":,"lon":}}'
42cd15ef-9ee1-40cc-9fae-b855df1aebd4: '{"name":"1-2-3-4","numero":"400316","region":"SE","location" :{"lat":49.01667,"lon":-119.15}}'
48d414e4-7683-4989-a476-0ef2bf396664: '{"name":"DUNSMUIR QUARRY","numero":"800003","region":"SW","location" :{"lat":49.1951,"lon":-124.10308}}'
58ed7f6a-a615-4916-bd02-d5484ca4aa49: '{"name":"P69568","numero":"400738","region":"SC","location" :{"lat":,"lon":}}'
d4a1d992-d78e-4a0b-8533-73d14d89cf4a: '{"name":"MICO","numero":"400694","region":"SC","location" :{"lat":49.149167,"lon":-119.617222}}'
3af17e61-8f11-4ae6-9b59-bfe266e11ca2: '{"name":"Josh 1","numero":"400695","region":"SC","location" :{"lat":50.13645,"lon":-119.3874}}'
e0973d06-fc09-49b5-baac-0a28f5fb69c9: '{"name":"FAIRVIEW (SIM)","numero":"400690","region":"SC","location" :{"lat":49.15,"lon":-119.61667}}'
ff7bcae7-d9bf-4219-bf03-7df00101adee: '{"name":"BEAVERDELL QUARRY (Cranbrook Region)","numero":"400492","region":"SE","location" :{"lat":49.33333,"lon":-118.96667}}'
15fda8d9-159b-488c-8c65-32472abe192d: '{"name":"STANNITE","numero":"400485","region":"SE","location" :{"lat":51.18639,"lon":-117.91667}}'
5b14d162-61eb-4e39-b5f0-1863728d106f: '{"name":"PC 316134 Jacko","numero":"400487","region":"SC","location" :{"lat":50.049444,"lon":-118.521389}}'
f91cf1c3-fb79-4cce-a877-c44c8951f061: '{"name":"ANDE 1 MINERAL CLAIM","numero":"700586","region":"SW","location" :{"lat":49.6269444,"lon":-121.25}}'
39ea6e86-299d-4660-9741-db5cda9efbfa: '{"name":"LILBRAT","numero":"700196","region":"SW","location" :{"lat":49.05083,"lon":-121.82472}}'
b78d6993-2988-46ef-9041-eea6e0bd0827: '{"name":"Eileen-Cumoly","numero":"700200","region":"SW","location" :{"lat":50.03333,"lon":-122.53333}}'
3890d40f-a93e-4cc6-ae88-a8942386d4cd: '{"name":"FLECK BRITANNIA","numero":"700202","region":"SW","location" :{"lat":49.59306,"lon":-123.11667}}'
78e655a7-a878-4127-8ce6-b862c290f9d5: '{"name":"Mineral Point","numero":"700181","region":"SW","location" :{"lat":49.53443,"lon":-123.83858}}'
b97208a6-0275-4857-a039-7d419b43caeb: '{"name":"GILT CREEK","numero":"700189","region":"SW","location" :{"lat":49.6833333,"lon":-121.3666667}}'
c0e2102c-a322-460a-bccf-f6cc1bcbbd9a: '{"name":"DISCOVERY CLAIMS","numero":"700168","region":"SW","location" :{"lat":50.084722,"lon":-123.1}}'
20dc469c-0697-4a65-bd56-a422958567b8: '{"name":"PC 317819","numero":"400450","region":"SC","location" :{"lat":50.116667,"lon":-118.466667}}'
c1b947e4-3a4b-4964-ab09-77fa69f0519a: '{"name":"GRAY AVENUE (28700)","numero":"700565","region":"SW","location" :{"lat":49.15444,"lon":-122.43389}}'
117c8f81-5f9c-4b9e-816a-ed475c620586: '{"name":"GST Placer Claim","numero":"700566","region":"SW","location" :{"lat":49.69472,"lon":-121.41667}}'
5a8fbb79-4202-4691-85d1-359ef274c241: '{"name":"Lone Wolf 2","numero":"700554","region":"SW","location" :{"lat":49.4575,"lon":-121.36667}}'
5d30b4ae-76a4-45b3-a030-485d917d1fa2: '{"name":"MORRIS CLAIMS","numero":"700556","region":"SW","location" :{"lat":49.305,"lon":-121.86667}}'
1fb3d4b0-bb3e-4922-98e0-d645bb73e94c: '{"name":"South Okanagan Pit","numero":"400409","region":"SC","location" :{"lat":49.06552,"lon":-119.5267}}'
30d972dd-828a-4995-8504-cba96bb21eaa: '{"name":"Keremeos Pit","numero":"400411","region":"SC","location" :{"lat":49.19706,"lon":-119.8595}}'
703a3904-300b-407a-8501-50800f588328: '{"name":"PL 316892","numero":"400404","region":"SC","location" :{"lat":50.06667,"lon":-118.5}}'
b8a4752e-9b4c-47d4-a76c-c9eb35415eb7: '{"name":"PL 269427","numero":"400405","region":"SC","location" :{"lat":,"lon":}}'
88b13b1d-e305-4fab-95d4-c1717593838b: '{"name":"STORM","numero":"400320","region":"SC","location" :{"lat":49.766667,"lon":-119.8}}'
da200678-95fa-44c1-a1f7-84e7afbdbc48: '{"name":"WINROCK SAND & GRAVE","numero":"400321","region":"SC","location" :{"lat":,"lon":}}'
77385261-26f3-48a5-8bce-93c67fa3e3f6: '{"name":"Witherby Pit","numero":"700379","region":"SW","location" :{"lat":49.49528,"lon":-123.49583}}'
f55da77e-735d-45c1-a673-ef64e31154a1: '{"name":"Lewis Pit","numero":"400748","region":"SC","location" :{"lat":50.86778,"lon":-119.4877}}'
bea182f0-7181-4b87-a6f0-ffc71a105fa3: '{"name":"P69567","numero":"400740","region":"SC","location" :{"lat":,"lon":}}'
955d7890-7e2f-4a99-b1a3-cf1af6aa6385: '{"name":"PINNACLE","numero":"400497","region":"SC","location" :{"lat":49.93333,"lon":-120.06667}}'
dfbe3914-a029-45a7-8101-b2e8060be42e: '{"name":"PC 319441","numero":"400498","region":"SC","location" :{"lat":50.1,"lon":-118.466667}}'
c13ebeb9-407e-4701-b352-b871ae33d65f: '{"name":"SUSIE","numero":"400500","region":"SC","location" :{"lat":49.20222,"lon":-119.58389}}'
588faaa4-7a50-4c42-87bb-a1739ebf7720: '{"name":"MOT Grube Pit #0380","numero":"400502","region":"","location" :{"lat":50.8167,"lon":-119.6833}}'
f54e48e0-6350-4942-9b5d-ecc2a5235975: '{"name":"Bolivar","numero":"800012","region":"SW","location" :{"lat":49.76045,"lon":-124.59021}}'
e68efa71-222f-41a4-9030-edbf8c842af3: '{"name":"SPUD VALLEY","numero":"800013","region":"SW","location" :{"lat":50.01667,"lon":-126.8}}'
b6fcbf3f-43e5-4827-a16d-ef00c7c11288: '{"name":"HIGH-GRADE PROPERTY","numero":"800014","region":"SW","location" :{"lat":49.1,"lon":-124.5833333}}'
adf45125-d540-4d48-9208-00c61a8c7fae: '{"name":"SANTANA COPPER MINE","numero":"800005","region":"SW","location" :{"lat":50.18639,"lon":-125.15}}'
efa7579f-9818-4597-91d4-2bcd6a2ba5f7: '{"name":"TEXADA ISLAND LIMESTONE QUARRY","numero":"800009","region":"SW","location" :{"lat":49.69556,"lon":-124.52028}}'
7932cc78-b45e-4754-a35c-d119952523a2: '{"name":"LYNX MINE","numero":"800002","region":"","location" :{"lat":,"lon":}}'
dc81e037-f853-419d-b04c-e36c3e59722b: '{"name":"ANDE 3 MINERAL CLAIM","numero":"700587","region":"SW","location" :{"lat":49.6438889,"lon":-121.2666667}}'
2c42c202-0d5e-4205-9855-620ed1aea06a: '{"name":"GREAT PACIFIC PUMICE (PEMBERTON)","numero":"700578","region":"SW","location" :{"lat":50.69472,"lon":-123.46667}}'
0ed4bea5-45af-46eb-8546-bd0469c2aaa1: '{"name":"PENNY 1 CLAIM","numero":"700581","region":"SW","location" :{"lat":50.5661111,"lon":-122.4333333}}'
3ad7cb1a-3a5c-41a6-b30c-83fdcc40ef72: '{"name":"GOBI 1, 2, 3 CLAIMS","numero":"700583","region":"SW","location" :{"lat":50.6947222,"lon":-123.4833333}}'
c619732b-bd98-439e-9cbf-eab778a01648: '{"name":"NANCY MINERAL CLAIM","numero":"700574","region":"SW","location" :{"lat":50.271111,"lon":-122.538333}}'
450498f5-5863-4829-8fdd-8e3a0465f834: '{"name":"Sechelt Rock Quarry","numero":"700577","region":"SW","location" :{"lat":49.46139,"lon":-123.69917}}'
7d5c986f-11c5-4134-a31c-67d9c153fb1d: '{"name":"DEWDNEY TRUNK ROAD (11546 AND 11596)","numero":"700568","region":"SW","location" :{"lat":49.2105,"lon":-122.3127}}'
6d44bcab-dc6f-4bfa-9d19-d0badd8cc251: '{"name":"Industrial Avenue Gravel Pit","numero":"700569","region":"SW","location" :{"lat":49.2,"lon":-122.53333}}'
29799e5f-7cb7-47ee-8519-2cb6dedd3d99: '{"name":"FLAG 1 & FLAG 11 PIT","numero":"400406","region":"","location" :{"lat":49.6,"lon":-119.1167}}'
87dc2b2c-a33f-4db3-83af-c6b47e6208b7: '{"name":"Winfield Pit","numero":"400407","region":"","location" :{"lat":,"lon":}}'
be1644e9-3460-4b0c-aeb1-66717ddee9e0: '{"name":"BLIZZARD","numero":"400400","region":"SC","location" :{"lat":,"lon":}}'
cacf3a42-426a-451f-b13c-998140ed0045: '{"name":"FUKI","numero":"400401","region":"SC","location" :{"lat":,"lon":}}'
fdeda598-13fb-42a3-be29-fb697432a9b2: '{"name":"PC 1013784","numero":"400403","region":"SE","location" :{"lat":51.7,"lon":-118.58833}}'
28991356-6b7c-4989-a0fa-22243424a0cb: '{"name":"MOTHERLODE/GREYHOUND","numero":"400377","region":"SE","location" :{"lat":49.1,"lon":-118.71667}}'
720f1329-0c26-4111-9103-8ece25a257ec: '{"name":"LOLA","numero":"400378","region":"SC","location" :{"lat":50.833333,"lon":-119}}'
68cce844-8cdd-47a3-bb2d-6be8074a4772: '{"name":"Tokyo","numero":"400379","region":"","location" :{"lat":,"lon":}}'
3dadd68c-bbf8-415b-a087-bc516c8c7b8e: '{"name":"BIRD MINERAL CLAIMS","numero":"700485","region":"SW","location" :{"lat":50.288056,"lon":-123}}'
8cea359b-27e5-4c27-a4c0-f6545efb3116: '{"name":"WP CLAIMS","numero":"400493","region":"SC","location" :{"lat":49.33333,"lon":-120.15}}'
f6047d9e-3baf-4ccd-bbfb-6b2877481b02: '{"name":"JJDD CLAIM GROUP","numero":"400494","region":"SC","location" :{"lat":50.2,"lon":-118.55}}'
26f9c96e-9e79-4fe5-9c2f-3e51342ded97: '{"name":"McDonald Big Y Pit","numero":"400496","region":"","location" :{"lat":,"lon":}}'
2ab0de2f-b0f0-44b2-99ed-d842c788265e: '{"name":"DELETE","numero":"700286","region":"","location" :{"lat":,"lon":}}'
e2fd18bc-b87c-496d-905d-594b95c5e081: '{"name":"HUNTINGDON ROAD - PIT 4","numero":"700278","region":"SW","location" :{"lat":49.03333,"lon":-122.41667}}'
bbf0b269-d4e1-400e-ad03-3ae203d315b0: '{"name":"CASCADE CLAIMS","numero":"700279","region":"SW","location" :{"lat":49.65,"lon":-121.2833333}}'
0642612b-2bab-43cf-beb4-3388ac7f907f: '{"name":"NIC MINERAL PROPERTY","numero":"700270","region":"SW","location" :{"lat":49.37278,"lon":-121.35}}'
09d7e6f1-3d52-4579-abb5-d771dce218f8: '{"name":"Raven & Eagel","numero":"700271","region":"SW","location" :{"lat":49.576111,"lon":-121.3}}'
de2b64f4-2d77-4c31-adce-35903e77a4df: '{"name":"KALAMALKA","numero":"400482","region":"SC","location" :{"lat":,"lon":}}'
196137f2-231d-4ed5-90b8-68c5988563fe: '{"name":"Alexandra Placer Claim - 95","numero":"700267","region":"SW","location" :{"lat":49.67778,"lon":-121.41667}}'
9379d8d5-ef10-4dc0-8b56-e23279a8006a: '{"name":"Spuzzum Placer Claim - 105","numero":"700268","region":"SW","location" :{"lat":49.64389,"lon":-121.41667}}'
29eef4f1-4765-463b-8ee8-4a835b5cb882: '{"name":"Village Quarry","numero":"700261","region":"SW","location" :{"lat":49.288056,"lon":-121.766667}}'
fd025d58-9238-4eaf-bdce-9c77699eaebb: '{"name":"Gladwin Road (1023)","numero":"700262","region":"SW","location" :{"lat":49.01667,"lon":-122.33333}}'
2560567e-32a5-4e65-b601-01ea2129686b: '{"name":"KING ROAD (28450)","numero":"700264","region":"SW","location" :{"lat":49.016944,"lon":-122.416667}}'
7b14fb0d-3f29-426a-b628-2615cfec7e0e: '{"name":"256th Street (13150)","numero":"700248","region":"SW","location" :{"lat":49.23722,"lon":-122.5}}'
4559ac27-3dc3-4e0c-9c7c-ee992de5edde: '{"name":"KING ROAD (28500)","numero":"700253","region":"SW","location" :{"lat":49.01694,"lon":-122.43333}}'
285ce066-f5a1-46b0-8d99-d3eec4d99b34: '{"name":"Ward Road Quarry","numero":"700548","region":"SW","location" :{"lat":49.07378,"lon":-122.1877}}'
71de6ca8-1696-40e5-a1d2-d6674cf09298: '{"name":"Placer Claim 21 (Tenure 267971)","numero":"700539","region":"SW","location" :{"lat":49.67642,"lon":-121.41767}}'
728be77c-88ea-417b-8ed5-b49bff4e6b52: '{"name":"ROSS ROAD (1909)","numero":"700541","region":"SW","location" :{"lat":49.03587,"lon":-122.4062}}'
43af58e8-40ab-4b4a-85a8-09f6ce34087d: '{"name":"KIWI MINERAL CLAIMS","numero":"700533","region":"SW","location" :{"lat":49.643889,"lon":-121.816667}}'
496cf767-535a-465d-8930-f934ec391586: '{"name":"JOAKIM PLACER CLAIM - 96","numero":"700534","region":"SW","location" :{"lat":49.593056,"lon":-121.416667}}'
e525bddb-6db7-4d44-9197-5d4c8f076914: '{"name":"Kozic Gold (Estate of John Kovic)","numero":"700536","region":"SW","location" :{"lat":50.21877,"lon":-122.97431}}'
060e7faa-fbd0-4a40-b2ae-1d81d705c469: '{"name":"BEAR MOUNTAIN QUARRY","numero":"700526","region":"SW","location" :{"lat":49.28305,"lon":-121.774631}}'
82f1746f-cfc5-4adc-b820-492b7864174b: '{"name":"ART AND BOB CLAIMS","numero":"700471","region":"SW","location" :{"lat":50.2744444,"lon":-122.8613889}}'
2d8f8d82-b79a-4f39-87d6-de6f7f4a5f5d: '{"name":"SUTHERLAND ROAD (3019) QUARRY","numero":"700472","region":"SW","location" :{"lat":49.25356,"lon":-121.8511}}'
018a2d45-bafc-4cf1-8a87-38928a722229: '{"name":"MYRA FALLS - HW","numero":"800007","region":"SW","location" :{"lat":49.5706707,"lon":-125.5915003}}'
f0051653-7945-48c9-bb41-0300e89bd1f3: '{"name":"Keeping Road (37120) Jamieson","numero":"700473","region":"SW","location" :{"lat":49.07694,"lon":-122.1917}}'
478df43b-4d7f-4d7d-9c7a-aa6e28c3c406: '{"name":"Gambier Island Copper","numero":"700464","region":"SW","location" :{"lat":49.5,"lon":-123.36667}}'
c39c47e4-ac4a-490c-8a10-9e034161e6f6: '{"name":"MCNABB CREEK","numero":"700465","region":"SW","location" :{"lat":49.57611,"lon":-123.38333}}'
39cedae2-875d-494d-bbf3-a74ca1263b13: '{"name":"BLUE GRANITE CLAIMS","numero":"700563","region":"SW","location" :{"lat":49.38972,"lon":-122.26667}}'
bf088486-dd33-477c-ae87-cff747cd710f: '{"name":"BEAR MOUNTAIN NORTH","numero":"700549","region":"SW","location" :{"lat":49.2838889,"lon":-121.785}}'
e3293c4b-5ef1-450e-af70-9f9900db95fc: '{"name":"Bear 1 & 2 Claims","numero":"700550","region":"SW","location" :{"lat":49.62254,"lon":-121.82203}}'
928603cd-b09f-45ef-bffe-81101c04d50e: '{"name":"BLUE MOUNTAIN QUARRY","numero":"700273","region":"SW","location" :{"lat":49.27111,"lon":-122.43333}}'
fc04ce55-acbb-4915-ab68-678fcbcbe458: '{"name":"AZURE","numero":"400691","region":"SC","location" :{"lat":49.05139,"lon":-119.55083}}'
adc192a8-52b8-4e69-8618-156fd3b7ede4: '{"name":"District of Summerland Gravel Pit","numero":"400685","region":"SC","location" :{"lat":49.59628,"lon":-119.7326}}'
c38ae1f7-8ff7-4397-a421-291c2ccb73a0: '{"name":"Miller Pit","numero":"400686","region":"","location" :{"lat":,"lon":}}'
21c372ee-4925-41d4-b8d6-7e7859a496f7: '{"name":"DOCTOR S POINT","numero":"700376","region":"SW","location" :{"lat":49.65,"lon":-121.98333}}'
534210b6-5a3e-4766-8a8b-0c895f66a907: '{"name":"Watts Point Quarry","numero":"700032","region":"SW","location" :{"lat":49.6549,"lon":-123.21363}}'
5dcf63d2-9b54-4759-9ed7-f732a41f854d: '{"name":"Quarry Road (4892)","numero":"700033","region":"SW","location" :{"lat":49.325,"lon":-122.66833}}'
172cf001-2552-45e6-bc56-686c03374c86: '{"name":"Pitt River Quarry","numero":"700035","region":"SW","location" :{"lat":49.28694,"lon":-122.66167}}'
25951a95-d8d2-4e6f-96d0-2640d918d9d8: '{"name":"CHILLIWACK LAKE","numero":"700259","region":"SW","location" :{"lat":49.09306,"lon":-121.43667}}'
0a14c3f1-0bce-47e2-b5c9-749fde0b0d8b: '{"name":"Andrews Pit","numero":"400679","region":"SC","location" :{"lat":50.21528,"lon":-119.02056}}'
bf1930c0-9b66-4446-a598-ce259c269a8e: '{"name":"RED ROCK","numero":"400337","region":"SC","location" :{"lat":,"lon":}}'
25a0631b-32dd-4d11-a048-4b4bbf348401: '{"name":"MOT Peachland Creek #2807","numero":"400330","region":"SC","location" :{"lat":,"lon":}}'
fdee44a2-52aa-4bf5-bc6c-55d40319cf62: '{"name":"PC 268792","numero":"400332","region":"SE","location" :{"lat":51.66625,"lon":-118.49521}}'
d4784bdc-e87c-44ef-b207-3bea53e20c32: '{"name":"PML 244","numero":"400333","region":"SC","location" :{"lat":,"lon":}}'
a2fbb747-b20e-442d-a6bd-0dca1c352e44: '{"name":"PC 21","numero":"400334","region":"SC","location" :{"lat":,"lon":}}'
8320433f-9ab6-4f08-8d7f-e5d276091061: '{"name":"Ross Road (1239) Pit #15","numero":"700434","region":"SW","location" :{"lat":49.02861,"lon":-122.40111}}'
d93465cb-5ace-4edb-913f-c4ed2cea6f04: '{"name":"Wigard Road","numero":"700144","region":"SW","location" :{"lat":49.48528,"lon":-123.79778}}'
7c3014a5-c86a-4a68-b7a9-9944c372bad0: '{"name":"ZERO AVENUE (26055)","numero":"700504","region":"SW","location" :{"lat":49.0083333,"lon":-122.4916667}}'
d8939dbb-81fd-4421-977e-fbe671bfd98a: '{"name":"Cemetery Pit","numero":"700094","region":"SW","location" :{"lat":49.37611,"lon":-121.40556}}'
e1cf633c-1b0a-4abf-ba0e-7d85f18a7dda: '{"name":"FLOOD HOPE ROAD (63370)","numero":"700096","region":"SW","location" :{"lat":49.355833,"lon":-121.483333}}'
357b4ac7-6e5b-4066-a1f5-d81165b046e3: '{"name":"Bell Road (38297)","numero":"700098","region":"SW","location" :{"lat":49.18072,"lon":-122.16513}}'
ffe7c2cd-e0fa-4edb-b14d-f13afc21c06b: '{"name":"Kirkpatrick Gravel Pit - 128th Avenue","numero":"700084","region":"SW","location" :{"lat":49.23528,"lon":-122.49889}}'
8f96d8b4-99c9-49a0-b0c8-423ab1e6dd36: '{"name":"HUNTINGDON ROAD (28473)","numero":"700086","region":"SW","location" :{"lat":49.01744,"lon":-122.43242}}'
6f5067a4-abd2-4728-8014-594226627132: '{"name":"272ND STREET","numero":"700092","region":"SW","location" :{"lat":49.02361,"lon":-122.46889}}'
fa85e7b6-5fbb-485e-9bb1-bfb3c9385e46: '{"name":"DAWN GRAVEL PIT 2","numero":"700080","region":"SW","location" :{"lat":49.275,"lon":-122.48333}}'
e90e8caa-1f31-4416-b0a4-89e3e8ddac11: '{"name":"FOG CLAIMS","numero":"700552","region":"SW","location" :{"lat":49.6166667,"lon":-123.0333333}}'
00021189-0e0a-46f5-949c-38ae1240adc4: '{"name":"Quet Claims","numero":"700164","region":"SW","location" :{"lat":49.7625,"lon":-121.35}}'
cd802847-c34f-42ad-99cf-a5682e5941b0: '{"name":"DOLAN PL 17716","numero":"700167","region":"SW","location" :{"lat":49.40222,"lon":-121.42639}}'
fa046728-4455-41bd-832d-0667b98e4f84: '{"name":"Lucky 13","numero":"700157","region":"SW","location" :{"lat":49.40826,"lon":-121.42292}}'
0676acd2-5f06-4b4c-a4f8-0bd023833616: '{"name":"CPR QUARRY","numero":"700158","region":"SW","location" :{"lat":49.23722,"lon":-121.8}}'
27cfbb33-77cf-42f1-96e3-4ca2718812fb: '{"name":"Sayres","numero":"700159","region":"SW","location" :{"lat":49.31298,"lon":-122.31843}}'
ea01e654-90d0-4ae9-b330-33dca750a41d: '{"name":"JI Claims","numero":"700505","region":"SW","location" :{"lat":49.88111,"lon":-123.93333}}'
6511dcbe-056d-4e7b-9f6c-a3f8eb2d727a: '{"name":"MARBLE HILL CLAIMS","numero":"700506","region":"SW","location" :{"lat":49.11861,"lon":-121.83611}}'
df5f4d6d-dde5-422e-8bea-bbe3f55276ee: '{"name":"GWEN MINERAL CLAIM","numero":"700494","region":"SW","location" :{"lat":49.2711111,"lon":-122.4333333}}'
19bc5c0c-e76d-4f3f-b21f-0c6fc32b2748: '{"name":"INDUSTRIAL AVENUE (10412)","numero":"700025","region":"SW","location" :{"lat":49.1925,"lon":-122.53583}}'
1caa32af-6f49-48cf-b9c8-116d27d55b05: '{"name":"SALMON INLET","numero":"700027","region":"SW","location" :{"lat":49.67945,"lon":-123.54918}}'
bb27aaa4-fd10-4ac5-89cd-326368c8df87: '{"name":"SECHELT INLET ROAD","numero":"700021","region":"SW","location" :{"lat":49.50056,"lon":-123.74222}}'
6968767a-cc1f-4506-8c1b-074c15131531: '{"name":"Lake Errock Pit","numero":"700023","region":"SW","location" :{"lat":49.225,"lon":-122.016}}'
934a924e-007a-43c7-9482-e2a3e900bc3e: '{"name":"VEDDER MOUNTAIN QUARRY","numero":"700381","region":"SW","location" :{"lat":49.08472,"lon":-121.96667}}'
031ad78b-429a-498c-9672-ccdac3f10bf1: '{"name":"PL 9790","numero":"700367","region":"SW","location" :{"lat":49.7625,"lon":-122.16667}}'
ae279dae-7013-42a9-8f48-1977aee6392f: '{"name":"Joe Dank Claims","numero":"700369","region":"SW","location" :{"lat":49.9333333,"lon":-121.35}}'
0d1d9ac7-d418-4cba-b351-64bae614a430: '{"name":"Trans Mountain Pit","numero":"700360","region":"SW","location" :{"lat":49.37278,"lon":-121.30917}}'
b0eb67eb-658d-491e-b091-7daa731e6f0c: '{"name":"DENT ROAD","numero":"700430","region":"SW","location" :{"lat":49.32028,"lon":-121.60611}}'
f0e8e0de-d231-4105-a310-5650c318fc9b: '{"name":"TUM TUM ROAD","numero":"700410","region":"SW","location" :{"lat":49.35583,"lon":-121.46083}}'
3ba5f644-da0c-4d0e-b40a-2916b6717038: '{"name":"APEX CLAIMS","numero":"700653","region":"SW","location" :{"lat":49.72861,"lon":-121.71667}}'
85d40ba7-2bac-43ae-bc66-c4b01e04acf0: '{"name":"Abo - Harrison Gold","numero":"700344","region":"SW","location" :{"lat":49.31536,"lon":-121.74417}}'
c12bab48-c177-4b36-8979-ffda913549a3: '{"name":"BRIDAL FALLS QUARRY","numero":"700327","region":"SW","location" :{"lat":49.27111,"lon":-121.72556}}'
213adb61-f447-4591-b755-a8efc5825cc2: '{"name":"WEDGEMONT QUARRY","numero":"700332","region":"SW","location" :{"lat":50.17028,"lon":-122.92417}}'
be1c48a8-0332-4bd2-baa1-ff131903152b: '{"name":"Cannor Road (7700)","numero":"700333","region":"SW","location" :{"lat":49.06778,"lon":-121.07028}}'
aac78c5b-2640-4439-8f56-5a1dfae046e9: '{"name":"INDIAN RESERVE NO. 5","numero":"700081","region":"SW","location" :{"lat":49.17778,"lon":-122.53056}}'
e4f27037-cdbc-451a-bb17-ada74100ad8e: '{"name":"Seneca","numero":"700177","region":"SW","location" :{"lat":49.37016,"lon":-121.88809}}'
77eed42b-6c11-41d5-ae80-1297d985862d: '{"name":"Sylvan","numero":"700161","region":"SW","location" :{"lat":50.48306,"lon":-122.69861}}'
27ec050d-543b-496c-b4a7-51748f229b21: '{"name":"Kayla Cache","numero":"400648","region":"SC","location" :{"lat":50.066667,"lon":-118.5}}'
3a40ed01-7955-4e2f-8390-a895f6df79ee: '{"name":"RENEE 100-RENEE 200","numero":"400650","region":"SE","location" :{"lat":51.625,"lon":-118.170833}}'
a4a529e9-747c-4032-b656-61845045ccd3: '{"name":"Zappone Pit","numero":"400645","region":"SC","location" :{"lat":50.6968,"lon":-119.2124}}'
44998060-ad8e-4ea3-8866-4c12a35ce41f: '{"name":"Serwa Bulldozing Pit","numero":"400646","region":"SC","location" :{"lat":49.78889,"lon":-119.05278}}'
97433cc1-f700-4eab-95ad-3cda8294000c: '{"name":"BRITANNIA MINE","numero":"700427","region":"SW","location" :{"lat":49.61,"lon":-123.13333}}'
f705b979-710b-40b6-82c4-5557e80b0a99: '{"name":"BARNET HIGHWAY (851)","numero":"700499","region":"SW","location" :{"lat":49.288056,"lon":-122.866667}}'
e2615c45-b76b-430a-abbc-342a6e653c55: '{"name":"POSEY BAR PLACER CLAIM - 94","numero":"700500","region":"SW","location" :{"lat":49.49139,"lon":-121.41667}}'
3347fdb6-3576-451e-be36-2e91224791ed: '{"name":"Peers Creek Pit","numero":"700490","region":"SW","location" :{"lat":49.3833333,"lon":-121.3333333}}'
057f2fbc-b9ae-4d33-90b3-600e53212384: '{"name":"SILVERTIP CLAIMS","numero":"700491","region":"SW","location" :{"lat":49.06667,"lon":-121.25}}'
02c106e2-5e44-4887-9980-abb6e466bf74: '{"name":"WEDGEMOUNT QUARRY","numero":"700493","region":"SW","location" :{"lat":50.17361,"lon":-122.87917}}'
729b36b6-92e0-4030-887a-78cea7508832: '{"name":"LITTLE ED CLAIMS","numero":"700479","region":"SW","location" :{"lat":49.62694,"lon":-121.36667}}'
19f07375-142b-4e88-bd29-03aa90ac5bb1: '{"name":"LD Claims","numero":"700469","region":"SW","location" :{"lat":49.33373,"lon":-121.84134}}'
a0dab968-df1f-4b28-ae9a-3d86533eabf4: '{"name":"TIME REALTY PIT","numero":"700452","region":"SW","location" :{"lat":50.31667,"lon":-122.73333}}'
a0a0a32b-032a-4b78-b92e-3b89bfe15a9c: '{"name":"SKAGIT QUARRY","numero":"700455","region":"SW","location" :{"lat":49.13556,"lon":-121.28333}}'
eeada37e-2e81-466f-b7ab-2a76801a0134: '{"name":"Britannia Beach Pit","numero":"700362","region":"SW","location" :{"lat":49.62694,"lon":-123.2}}'
cae90d51-f97e-4927-842d-43333e086cbc: '{"name":"Yale Gold Deposit","numero":"700364","region":"SW","location" :{"lat":49.58333,"lon":-121.45}}'
599ce7d8-e254-47d6-9a96-d33cd9079231: '{"name":"FOX ISLAND QUARRY","numero":"700366","region":"SW","location" :{"lat":49.72473,"lon":-124.208489}}'
510f3fae-6227-402b-b2b6-c32db6d93943: '{"name":"NELSON ISLAND","numero":"700341","region":"SW","location" :{"lat":49.67266,"lon":-124.17748}}'
5c6c1a96-1110-4a97-b026-5ccf1ca53260: '{"name":"OK Builders Supplies Ltd","numero":"400773","region":"","location" :{"lat":50.0167,"lon":-119.41}}'
095abf7c-8e68-4464-8ae7-24bdf7725d3b: '{"name":"BRIDE MAC PEER","numero":"400489","region":"SC","location" :{"lat":,"lon":}}'
5e5af73d-c8f1-42a8-8536-7ff452cd0384: '{"name":"CANYON 1-6","numero":"400490","region":"SC","location" :{"lat":,"lon":}}'
25cde165-f01d-4564-baf0-61a7789e5131: '{"name":"NIGHT HAWK TREND","numero":"400491","region":"","location" :{"lat":49.0917,"lon":-119.1333}}'
fbf7c93a-edd0-4ed6-8901-3bd0b7044653: '{"name":"Elaho","numero":"700323","region":"SW","location" :{"lat":50.11083,"lon":-123.41667}}'
c3510eb3-63c8-4dd7-8b41-95a024529318: '{"name":"COQUITLAM WATERSHED QUARRY","numero":"700324","region":"SW","location" :{"lat":49.38333,"lon":-122.75}}'
fc34a71a-aecd-4261-a196-c9e84b4d3f60: '{"name":"McMaster Claims","numero":"700325","region":"SW","location" :{"lat":49.58333,"lon":-121.33333}}'
88303f40-2bcb-4faa-96d0-7752bb52b663: '{"name":"NELSON SLOUGH","numero":"700313","region":"SW","location" :{"lat":49.216,"lon":-121.88804}}'
c595e517-46a3-4b44-9e5b-c39686d5698e: '{"name":"PADDY - PADDY 3","numero":"400483","region":"SC","location" :{"lat":49.36667,"lon":-119.65}}'
59eb2dd0-0451-4042-a7ef-77891f5ac359: '{"name":"PC 305995","numero":"400484","region":"SC","location" :{"lat":50.96667,"lon":-119.43333}}'
4801940c-1243-40ee-b3ab-406d9b1b00af: '{"name":"Mara Pit","numero":"400478","region":"SC","location" :{"lat":50.79335,"lon":-118.9834}}'
0b2f9534-560e-4248-b98a-f2b2bb109b20: '{"name":"BROWN PIT","numero":"400479","region":"","location" :{"lat":49.0167,"lon":-118.25}}'
49f884c0-4cb3-46ee-ac4a-5af046977601: '{"name":"Pendergraft Pit","numero":"400641","region":"SC","location" :{"lat":,"lon":}}'
27c7cd60-7bdf-4009-a354-cfc8937891a1: '{"name":"Easy 1 and Jo Claims","numero":"700145","region":"SW","location" :{"lat":49.95,"lon":-122.43333}}'
b84b63bb-3c11-4550-8acb-fe03042dcec4: '{"name":"Sonora Deroche Pit","numero":"700146","region":"SW","location" :{"lat":49.20317,"lon":-122.04033}}'
32533880-9269-4840-abb8-2dc965025d88: '{"name":"Denar Claims","numero":"700136","region":"SW","location" :{"lat":49.11667,"lon":-121.1}}'
ac3ee406-a1b9-4d08-8ba0-13ba6293c419: '{"name":"OLD SNOWSHED QUARRY","numero":"700138","region":"SW","location" :{"lat":49.54222,"lon":-121.11667}}'
4ddbbb65-4f01-4383-b7db-29970a2234ad: '{"name":"Serpentine Project (Sowaqua #1)","numero":"700142","region":"SW","location" :{"lat":49.42361,"lon":-121.20417}}'
22386051-390c-47f6-8a50-f695206bb6ef: '{"name":"Evelyn","numero":"700128","region":"SW","location" :{"lat":50.08472,"lon":-123.33889}}'
6b8bb7dc-3648-42c4-8dd7-3fb3321f59fa: '{"name":"BRADNER ROAD (1281)","numero":"700130","region":"SW","location" :{"lat":49.025,"lon":-122.425}}'
39b22bf6-364f-4e18-b170-3acec6d9137e: '{"name":"AU MINERAL PROPERTY","numero":"700076","region":"SW","location" :{"lat":49.9488889,"lon":-123.425}}'
a203e28d-d5aa-4b5e-acf6-124350b3924d: '{"name":"Alpine","numero":"700078","region":"SW","location" :{"lat":49.93528,"lon":-123.35722}}'
d1f1864d-b049-4c28-979f-8674d059c2c0: '{"name":"Carexy","numero":"700079","region":"SW","location" :{"lat":49.677778,"lon":-121.841667}}'
6a47a23e-eaa9-4331-97c3-6ab842307752: '{"name":"Chilliwack Gravel Pit","numero":"700070","region":"SW","location" :{"lat":49.09444,"lon":-121.94944}}'
706a9b2b-93d6-4f65-91a3-c9f1e4a888e9: '{"name":"Cheam Pit","numero":"700073","region":"SW","location" :{"lat":,"lon":}}'
609540ff-db2b-4ee4-af6d-077b837f27ef: '{"name":"DEWDNEY TRUNK ROAD (11408)","numero":"700065","region":"SW","location" :{"lat":49.21111,"lon":-122.30556}}'
6b7f7383-35ab-4ee2-a7f1-d6a3a771b699: '{"name":"ROSS ROAD","numero":"700153","region":"SW","location" :{"lat":49.04417,"lon":-122.40861}}'
0cc0710e-ffee-48c4-8e01-01ba1031b61e: '{"name":"Sumas Feldspar / Sodaspar","numero":"700154","region":"SW","location" :{"lat":49.11667,"lon":-122.16667}}'
281feabb-1815-47c2-b092-8c25860b2558: '{"name":"STRACHAN POINT","numero":"700155","region":"SW","location" :{"lat":49.4166667,"lon":-123.2333333}}'
b41f174b-d6ad-4ce4-887a-943cfbe5badc: '{"name":"VALLEY 100 PLACER CLAIM","numero":"700654","region":"SW","location" :{"lat":49.42361,"lon":-121.41667}}'
a6e285b3-a87f-400a-90ff-6b32e3f5ef80: '{"name":"EMMA AND JANE CLAIMS","numero":"700656","region":"SW","location" :{"lat":49.71667,"lon":-123.95}}'
52204336-fa19-4d81-8cd9-b889358bdb81: '{"name":"ROCKY PLACER CLAIM","numero":"700647","region":"SW","location" :{"lat":49.44056,"lon":-121.45}}'
f591a3c7-379a-431d-a3d9-32b83b281710: '{"name":"Hatch Pit","numero":"700649","region":"SW","location" :{"lat":49.55917,"lon":-121.43528}}'
1411817e-79a4-41d9-9b9b-1b73834712b2: '{"name":"BEAR 1 AND 2 CLAIMS","numero":"700650","region":"SW","location" :{"lat":49.622066,"lon":-121.821769}}'
0237ab21-d67f-4de9-bfe4-ab1da5bb4322: '{"name":"HOPE QUARRY","numero":"700644","region":"SW","location" :{"lat":49.49139,"lon":-121.25}}'
710591e1-ede8-41be-9acf-b45c6d028f0b: '{"name":"Kereluk Pit","numero":"400687","region":"","location" :{"lat":49.5896,"lon":-119.729}}'
d4e545d5-839e-4feb-9fe5-d130cab6f1c9: '{"name":"JNE Contracting Pit","numero":"400688","region":"SC","location" :{"lat":,"lon":}}'
92cade7c-aaf0-42ac-8a81-889e315f233b: '{"name":"BMX Quarry","numero":"400473","region":"SE","location" :{"lat":51.83333,"lon":-118.52667}}'
8795dd34-533b-4ce8-8402-f746e2f7b3a8: '{"name":"EIGHT MILE PIT","numero":"700642","region":"SW","location" :{"lat":49.77528,"lon":-123.16083}}'
887bb82e-a372-4894-ade4-50d4fed90095: '{"name":"DELETE","numero":"700633","region":"","location" :{"lat":,"lon":}}'
7eb5c6fc-c0f5-4839-91c2-4c13516559f1: '{"name":"DAWN QUARRY","numero":"700634","region":"SW","location" :{"lat":49.275,"lon":-122.48333}}'
7d9852c9-bf28-49e8-a116-f13cd23502ee: '{"name":"Armstrong Pit","numero":"400675","region":"SC","location" :{"lat":50.4068,"lon":-119.20197}}'
48c532f3-8a88-4161-9158-e224c825d327: '{"name":"Spallumcheen Pit","numero":"400677","region":"SC","location" :{"lat":50.40389,"lon":-119.20405}}'
1a35bda9-1391-480f-b466-5b10c84219ba: '{"name":"Chapman Sand & Gravel Ltd.","numero":"400671","region":"SC","location" :{"lat":50.40278,"lon":-119.19889}}'
3dd606c1-de65-4989-9282-97b95f53ef52: '{"name":"PC 338366","numero":"400673","region":"SC","location" :{"lat":50.04111,"lon":-118.54389}}'
c52f152a-572e-412d-851e-1f3939f82497: '{"name":"DON WIN","numero":"400619","region":"SC","location" :{"lat":49.2,"lon":-119.566667}}'
bdbec991-7855-4e51-b12b-d5a51deb7f90: '{"name":"Annie Bell","numero":"400621","region":"","location" :{"lat":50.3667,"lon":-119.65}}'
1614efb1-fd8d-4048-a30e-2ebb2ad47ef6: '{"name":"Larsen Street (11324)","numero":"700083","region":"SW","location" :{"lat":49.20333,"lon":-122.30722}}'
14bf9f03-5320-498e-a87c-adbe1ac506ed: '{"name":"ANNIE II","numero":"400595","region":"SC","location" :{"lat":50.316667,"lon":-119.666667}}'
c8caf2cc-2c90-4c9e-8300-5c732bbf388d: '{"name":"CAHILL 1 & 2","numero":"400596","region":"SC","location" :{"lat":49.383333,"lon":-120}}'
a7576c14-9eb6-4e29-942b-120057f06640: '{"name":"Mara Lake Pit","numero":"400589","region":"SC","location" :{"lat":50.69167,"lon":-119.05}}'
9169e088-cafd-4bf9-b94d-ea8e57884f27: '{"name":"PC 324798, PC 355333","numero":"400591","region":"SC","location" :{"lat":50.11667,"lon":-118.41806}}'
e8b47235-2576-4fca-82bd-ec42a54c28a9: '{"name":"RUBY GROUP","numero":"400592","region":"SC","location" :{"lat":49.366667,"lon":-120.1}}'
86a72ea1-96f9-4b6a-9d8f-96fbf59ec02e: '{"name":"MARBLE CLAIMS","numero":"700149","region":"SW","location" :{"lat":50.05,"lon":-123.08333}}'
8e251539-8a72-4049-be1c-6cb12ac391c0: '{"name":"Tulloch Pit","numero":"400639","region":"SC","location" :{"lat":,"lon":}}'
f931963d-eadf-471b-a3c6-d4ed567c7a6a: '{"name":"Kettle Valley Pit","numero":"400632","region":"SC","location" :{"lat":49.78533,"lon":-119.5035}}'
203a7701-f6f4-4cd8-8eaf-e1b7ccf6029b: '{"name":"Meggait Pit","numero":"400633","region":"","location" :{"lat":50.4708,"lon":-119.1291}}'
68bff2ef-4b0b-458c-8f4d-4e00829b3d09: '{"name":"Greely Farms Pit","numero":"400635","region":"SC","location" :{"lat":51.01667,"lon":-118.08333}}'
93848912-8c94-4237-a722-cf0fb047fb64: '{"name":"MAGGIE PROPERTY","numero":"700134","region":"SW","location" :{"lat":49.63333,"lon":-123.28333}}'
9c21c9aa-6a5e-492f-bb63-789ce73aeef4: '{"name":"Blueberry - Blue 2001","numero":"700120","region":"SW","location" :{"lat":50.52528,"lon":-123}}'
dbd30582-d431-4726-98d3-d61b6f366f37: '{"name":"Jervis No. 1","numero":"700125","region":"SW","location" :{"lat":49.98287,"lon":-124.01011}}'
cf99bff0-c232-4607-ab2c-916b76c9531b: '{"name":"FRENCH CREEK","numero":"400681","region":"SE","location" :{"lat":51.71667,"lon":-118.43333}}'
b8de379e-394f-4eb2-b554-7cfd452ffe9c: '{"name":"MILLENIUM (SO LONG)","numero":"400682","region":"SC","location" :{"lat":50.78333,"lon":-119.05}}'
b386feea-ca45-472a-bc89-d7d677da4747: '{"name":"Bathville #1 and #2 Pit","numero":"400684","region":"SC","location" :{"lat":49.58806,"lon":-119.72889}}'
d66fa70c-e024-4dd9-9dad-1d914412a50b: '{"name":"PC 346321","numero":"400678","region":"SC","location" :{"lat":50.20305,"lon":-118.92139}}'
fc8313d0-3d71-4bdb-9766-2a69739435ee: '{"name":"JONES","numero":"400474","region":"","location" :{"lat":49.2833,"lon":-118.4667}}'
0d76801a-209f-467d-90e5-fea990d64246: '{"name":"MONA","numero":"400475","region":"SC","location" :{"lat":50.18333,"lon":-118.45}}'
71d88d68-32dc-4d2a-acad-0b95498e0c7f: '{"name":"PC 108","numero":"400344","region":"SC","location" :{"lat":,"lon":}}'
7742759a-861e-4368-8e8f-b51165a47f95: '{"name":"LES PROPERTY","numero":"700398","region":"SW","location" :{"lat":50.1016667,"lon":-123.0666667}}'
a3ac90e3-d4f1-4eea-b9d2-1a7e3cadef2a: '{"name":"KRM Gravel Pit","numero":"400667","region":"SC","location" :{"lat":49.87235,"lon":-119.57555}}'
a18a27b3-1da3-4807-a8e8-fd4b2907e827: '{"name":"GUNNER","numero":"400668","region":"SE","location" :{"lat":50.25,"lon":-118.2}}'
dc9f3d67-76fd-4f17-a40d-fdae11fa2d21: '{"name":"OPALUS 1","numero":"400670","region":"SC","location" :{"lat":,"lon":}}'
3bab13a6-7b25-4634-86b6-3ab40f95def5: '{"name":"EAGLE","numero":"400664","region":"SC","location" :{"lat":51.266667,"lon":-118.583333}}'
bb788b51-8d6b-40ed-9cbd-075e416893ba: '{"name":"PC 556405 - McCullough Creek","numero":"499998","region":"SE","location" :{"lat":51.68689,"lon":-118.45849}}'
a9b46bdc-a817-4d7f-974c-85dc84011e1d: '{"name":"DELETE","numero":"700001","region":"","location" :{"lat":,"lon":}}'
3f7dc467-3ffa-4309-80ac-a5d51419a40d: '{"name":"DELETE","numero":"700003","region":"","location" :{"lat":,"lon":}}'
7cb16150-1336-4cbc-8bd0-709a9a9df379: '{"name":"Ellison Ranch Pit","numero":"400771","region":"SC","location" :{"lat":50.11422,"lon":-119.35429}}'
86458f33-3373-4987-8486-093bdacfc1f3: '{"name":"Eva Pit","numero":"400586","region":"SC","location" :{"lat":50.90639,"lon":-119.58639}}'
3c0a9159-bd9c-4573-9912-86ddb3092d9a: '{"name":"South Canoe Pit","numero":"400587","region":"SC","location" :{"lat":50.69293,"lon":-119.2095}}'
2ae410e0-0b2c-4497-9b59-4e684d21e8f6: '{"name":"Rosebush Pit","numero":"400642","region":"SC","location" :{"lat":50.22389,"lon":-119.16167}}'
62704a43-8c0d-4d7b-84fd-3fba2d865cf3: '{"name":"Bettles Pit","numero":"400644","region":"SC","location" :{"lat":50.72111,"lon":-119.35556}}'
ac74a547-a121-4f05-86fa-5591b3ab23fc: '{"name":"Blackburn Pit #1","numero":"400636","region":"SC","location" :{"lat":50.66448,"lon":-119.33288}}'
bf9d97fe-b8fa-44a2-afa0-9debc7384632: '{"name":"PC 322921","numero":"400637","region":"SC","location" :{"lat":50.18639,"lon":-118.52861}}'
6e78a6a7-4c71-4903-9b64-5d04af1a5dbd: '{"name":"DUCK RANGE PIT","numero":"400439","region":"SC","location" :{"lat":,"lon":}}'
66894260-f06a-402b-aa1c-e94754566b9e: '{"name":"Auburn Pit","numero":"400242","region":"SC","location" :{"lat":49.86064,"lon":-119.59622}}'
aba38f39-8471-4cce-90ed-12fd9b1af200: '{"name":"Gold Mine","numero":"400235","region":"","location" :{"lat":,"lon":}}'
f3960507-9c2a-4f04-8bc7-d4344a9f717e: '{"name":"SUGAR LOAF","numero":"400237","region":"SC","location" :{"lat":,"lon":}}'
68d21403-de61-45a1-b08b-9ddffb2b5ff3: '{"name":"ZALMAC","numero":"400238","region":"SC","location" :{"lat":49.88333,"lon":-118.53333}}'
ce7d289d-1aff-48e1-b29f-eac2c69c2abf: '{"name":"Lumby","numero":"400232","region":"SC","location" :{"lat":50.26667,"lon":-118.9}}'
2a98d9fc-bc5a-4356-8a15-07dc16ecd9a4: '{"name":"TARN","numero":"300338","region":"SC","location" :{"lat":51.26667,"lon":-123.86667}}'
3edd776c-7500-4153-8864-520d9234c7ce: '{"name":"CL","numero":"300332","region":"SC","location" :{"lat":51.05,"lon":-121.58333}}'
09b93ec5-345e-4cf3-89a5-7c5a58bb6cd5: '{"name":"BB","numero":"300333","region":"SC","location" :{"lat":51.23333,"lon":-122.08333}}'
6bf1245a-4656-4b2e-8191-a9c038a3830a: '{"name":"Siva","numero":"300334","region":"SC","location" :{"lat":51.63333,"lon":-125.05}}'
5438160a-58cb-4aa4-a1f2-7b13c02055da: '{"name":"PL 16855","numero":"300106","region":"SC","location" :{"lat":,"lon":}}'
333fe4a0-4c83-4c6e-bd24-ccab74b118e0: '{"name":"PL 266368","numero":"300107","region":"SC","location" :{"lat":51.33084,"lon":-122.53555}}'
bc245eac-c681-4b78-9b3f-9edbfb29f998: '{"name":"PC 34","numero":"300108","region":"SC","location" :{"lat":,"lon":}}'
5f37857e-6041-4855-8b50-c2c7bfe2e4f5: '{"name":"GALLAGHER CREEK","numero":"300101","region":"SC","location" :{"lat":,"lon":}}'
2239d064-1dce-443c-b8e5-ab04816fbd70: '{"name":"LEONA GROUP","numero":"400222","region":"SE","location" :{"lat":49.133333,"lon":-119.016667}}'
ca9e4d59-139c-4ca8-907f-bfe7824dd603: '{"name":"DOMINION","numero":"400216","region":"SC","location" :{"lat":,"lon":}}'
7b1319da-4175-4b0b-9469-562c7c7250b0: '{"name":"GOD","numero":"400217","region":"SC","location" :{"lat":,"lon":}}'
f25ee821-eaab-42c4-b105-6ba5dac22817: '{"name":"NEW AGE","numero":"400218","region":"SC","location" :{"lat":,"lon":}}'
4e94b855-5e02-456b-a884-6e73306c829b: '{"name":"PC 269376","numero":"400212","region":"SC","location" :{"lat":50.216667,"lon":-118.55}}'
03675870-8c62-4001-a01b-adaae0a08c9f: '{"name":"PC 322931","numero":"400057","region":"SC","location" :{"lat":50.18044,"lon":-118.53805}}'
a96087fa-a973-4596-b7de-f79bc1f19a10: '{"name":"MID","numero":"300406","region":"SC","location" :{"lat":50.871024,"lon":-123.470626}}'
46bbca61-7bc1-4dfb-82a5-63862fade34e: '{"name":"Creek Flats Pit","numero":"300401","region":"SC","location" :{"lat":51.6881,"lon":-121.1946}}'
e6ade081-eb68-464d-b51c-0cafa29430d6: '{"name":"ENGINEER","numero":"300402","region":"SC","location" :{"lat":50.60915,"lon":-123.00788}}'
4ae19b8a-ae46-4ef8-909f-c7c8700be005: '{"name":"PC 313342","numero":"300396","region":"SC","location" :{"lat":,"lon":}}'
1d4c31a9-2c08-463e-a17a-58e9098cfc69: '{"name":"PC 313343","numero":"300397","region":"SC","location" :{"lat":,"lon":}}'
e4757c4d-948d-4be5-a768-6e74afe0f9a4: '{"name":"ROCK CLAIMS","numero":"400562","region":"SE","location" :{"lat":49.05,"lon":-119.08333}}'
cce5e125-e5fc-40fa-ab14-27da1f182775: '{"name":"Gaertner Pit","numero":"400563","region":"SC","location" :{"lat":49.13358,"lon":-119.5718}}'
1c9da287-59c6-42f8-acfb-1982963ecd13: '{"name":"EROS","numero":"300019","region":"SC","location" :{"lat":50.86772,"lon":-122.7561}}'
c11c9ea4-1d25-4d43-8267-335e67829ad3: '{"name":"BENTONITE-DIATOM.","numero":"300389","region":"SC","location" :{"lat":51.2,"lon":-120.916667}}'
a9f1e012-717c-4412-b2b9-e4a1c2b8c949: '{"name":"PC 266363","numero":"300390","region":"SC","location" :{"lat":0,"lon":0}}'
7e4c2fdf-26b4-42f7-9b29-bc1fa17bbada: '{"name":"Frenier Perlite","numero":"300391","region":"SC","location" :{"lat":51.33333,"lon":-122.33333}}'
d967e481-f0fb-427c-a84b-4af0f02426d4: '{"name":"PC 267642","numero":"300385","region":"SC","location" :{"lat":51.11667,"lon":-122.98333}}'
aeeee69f-5225-4705-a24a-70edb3ae6d92: '{"name":"WOH","numero":"300387","region":"SC","location" :{"lat":51,"lon":-121.4}}'
843528a3-b4bb-4e79-9e1b-fe50821858de: '{"name":"SILVER 1 & 2","numero":"300381","region":"SC","location" :{"lat":50.583333,"lon":-120.166667}}'
4973bcdc-ce52-4f8a-819f-8a3378f3c574: '{"name":"ED 1 - 4","numero":"300383","region":"SC","location" :{"lat":50.583333,"lon":-122.166667}}'
cab86540-da7c-4167-a3db-328a332b6e86: '{"name":"DUSTY ROSE","numero":"300327","region":"SC","location" :{"lat":50.666667,"lon":-121.15}}'
604e746a-9a62-4c78-89b6-950a9f8556a0: '{"name":"307949","numero":"300329","region":"SC","location" :{"lat":50.91667,"lon":-122.56667}}'
bcdd1872-3e3e-4a00-9dd9-50dc68cbc186: '{"name":"NB","numero":"300330","region":"SC","location" :{"lat":50.6,"lon":-121.366667}}'
f2582f8d-ae7e-4a13-b6ec-cab358eb884b: '{"name":"RANCHLANDS","numero":"300326","region":"SC","location" :{"lat":50.66667,"lon":-121.15}}'
9784cf01-af76-4a4a-8641-89e115a9cd83: '{"name":"TOP HAT","numero":"300102","region":"SC","location" :{"lat":,"lon":}}'
94957de9-5ed1-4c0d-9e7d-07241dab3b33: '{"name":"PILOT","numero":"300104","region":"SC","location" :{"lat":50.86667,"lon":-122.73333}}'
242634a0-de28-497d-aa1b-0ac6ea5fcaad: '{"name":"LMS","numero":"400182","region":"SC","location" :{"lat":,"lon":}}'
0b68b007-7621-42e9-a434-aafe7330944b: '{"name":"BART","numero":"400184","region":"SC","location" :{"lat":,"lon":}}'
480befcd-3992-4d94-b8c0-98d050e4d2e1: '{"name":"LINDA","numero":"400185","region":"SC","location" :{"lat":,"lon":}}'
e9af0141-f62b-4802-9c0e-c6f460eb405a: '{"name":"UNIQUE","numero":"300525","region":"SC","location" :{"lat":52.083611,"lon":-120.871389}}'
d98f2bae-0831-43a0-bab5-cd60ff45659d: '{"name":"TOSH","numero":"300320","region":"SC","location" :{"lat":51.15,"lon":-123.11667}}'
725a7acb-d9d5-4319-82e5-eab8bd4aa6ca: '{"name":"VIC Lake","numero":"300321","region":"SC","location" :{"lat":51.2,"lon":-123.266667}}'
244525ff-d423-4d7e-ab47-5392240bca48: '{"name":"COMMON","numero":"300315","region":"SC","location" :{"lat":50.45499,"lon":-122.23328}}'
030488e4-a810-4409-8376-a41b05880610: '{"name":"PC 374182","numero":"300316","region":"SC","location" :{"lat":51.99944,"lon":-122.27028}}'
0aac5c72-8258-4937-af5e-d589161ef7f7: '{"name":"NUM","numero":"300317","region":"SC","location" :{"lat":51.36667,"lon":-123.65}}'
e3027457-13b1-4242-b9f3-8248b4c4b829: '{"name":"Calling Lake","numero":"300311","region":"SC","location" :{"lat":50.45,"lon":-121.06667}}'
0632142b-b996-4166-b7fd-404d38197e6b: '{"name":"PC 112","numero":"300313","region":"SC","location" :{"lat":,"lon":}}'
af64e7a5-2315-47ff-af53-8d6d726ae8fd: '{"name":"TAM O SHANTER","numero":"400564","region":"SE","location" :{"lat":49.08333,"lon":-118.73333}}'
2047272b-daec-4b68-aef2-bbdbea2d4efc: '{"name":"VEGA","numero":"400558","region":"SC","location" :{"lat":49.91667,"lon":-119.63333}}'
f615c028-eb96-4fcc-add0-ad91944121e2: '{"name":"PC 323408","numero":"400559","region":"","location" :{"lat":49,"lon":-119}}'
d6824fde-18ce-48e5-a7d1-561fd9340eb6: '{"name":"ALI  Claim","numero":"400560","region":"SE","location" :{"lat":51.6,"lon":-118.4}}'
be74d84a-e86f-4ced-90ce-b875bcc22f9c: '{"name":"Accarias/Wish Pit","numero":"400555","region":"SC","location" :{"lat":49.08632,"lon":-119.5758}}'
0c4373b1-2ccb-43ee-8adb-cde39866cbe9: '{"name":"PC 24 (Par)","numero":"300251","region":"SC","location" :{"lat":51.1,"lon":-120.2}}'
93090107-6ad5-4c75-ad54-9fd52e9dac6d: '{"name":"Congress","numero":"300006","region":"SC","location" :{"lat":50.9025,"lon":-122.78667}}'
e6e80d18-052c-4054-8e06-d3d4f5c69723: '{"name":"MOO 1 & MOO 2","numero":"300388","region":"SC","location" :{"lat":51.05,"lon":-120.8}}'
9538f924-540c-4045-a6a9-f97ab13aa17c: '{"name":"WATERLOO","numero":"300233","region":"SC","location" :{"lat":50.8,"lon":-122.75}}'
ac274960-3866-4919-ac2a-d1fc0c5500ad: '{"name":"PC 70","numero":"300234","region":"SC","location" :{"lat":50.75,"lon":-121.86667}}'
a16dbf5b-7e02-4389-882a-cd0df8049067: '{"name":"SILVER QUICK","numero":"300228","region":"SC","location" :{"lat":51.03333,"lon":-122.81667}}'
7a6f95a2-ebc6-48bc-b4f8-3d9a6bcfde78: '{"name":"DIL","numero":"300229","region":"","location" :{"lat":,"lon":}}'
bb104742-329c-466f-81e8-ef1f52d184b3: '{"name":"PAC 1","numero":"300230","region":"SC","location" :{"lat":,"lon":}}'
62353d08-39ac-46a4-8a6e-2b7f239df355: '{"name":"OLYMPIC","numero":"300024","region":"SC","location" :{"lat":50.88889,"lon":-122.74194}}'
13196a89-c5d8-4553-8e11-a4893743cc06: '{"name":"BALLATAR","numero":"300017","region":"SC","location" :{"lat":,"lon":}}'
de31885c-1ec1-492e-8e8b-adafc30f745e: '{"name":"Salvation (372445)","numero":"300018","region":"SW","location" :{"lat":50.00057,"lon":-121.57356}}'
02458c8c-e93d-4580-818a-cc9222457e18: '{"name":"CAN","numero":"400180","region":"SC","location" :{"lat":,"lon":}}'
d388c1e5-cfc8-4099-872f-bbc5721eee92: '{"name":"Dawson Pit","numero":"400174","region":"SC","location" :{"lat":52,"lon":-119.66667}}'
838fd8b4-633f-450f-abff-145d6d434e3c: '{"name":"JL","numero":"400175","region":"","location" :{"lat":,"lon":}}'
bdde68b8-556a-4349-a90c-613541cc4deb: '{"name":"PC 42 Bobby 1","numero":"400177","region":"SC","location" :{"lat":50.10833,"lon":-118.43333}}'
580d08d2-f840-4042-b3f1-682a836c32a7: '{"name":"MTCOPELAND","numero":"400169","region":"","location" :{"lat":,"lon":}}'
3be80257-a0e6-4dfc-9a9b-00ad42c3ec30: '{"name":"PC GARDOM","numero":"400172","region":"SC","location" :{"lat":,"lon":}}'
10325ae0-24a1-4db5-9ba7-0dcba5fb490f: '{"name":"ALLCO","numero":"400173","region":"SC","location" :{"lat":,"lon":}}'
0a3bd286-99ec-4841-b873-432f558593d3: '{"name":"Mabel","numero":"400165","region":"SC","location" :{"lat":,"lon":}}'
ad2b8161-e0e8-4166-9bf1-90722a790e18: '{"name":"PL 9108","numero":"400167","region":"SC","location" :{"lat":,"lon":}}'
4217f360-4dc5-41d1-8a31-bfbb546e9478: '{"name":"PC BXCREEK","numero":"400124","region":"SC","location" :{"lat":,"lon":}}'
34dc5295-af75-41a0-8582-8c247e005659: '{"name":"KNIGHT","numero":"300204","region":"SC","location" :{"lat":,"lon":}}'
ceed2af7-a533-48c4-8d65-12163384f18c: '{"name":"DR","numero":"300205","region":"SC","location" :{"lat":,"lon":}}'
ce6c8dfa-5197-40a9-a7c0-1dd8899c3a22: '{"name":"GASPARD","numero":"300199","region":"SC","location" :{"lat":,"lon":}}'
d8f2e2b4-ed00-4544-b27c-c9ea0feb09fc: '{"name":"PINK 1 - 4","numero":"400312","region":"SC","location" :{"lat":,"lon":}}'
665e3848-ecb9-4e78-9d1e-502c5aef2a41: '{"name":"Eagle Rock Road Pit","numero":"400313","region":"SC","location" :{"lat":,"lon":}}'
757c5ae8-4567-4566-9378-c3b9b6201d59: '{"name":"BLUEHAWK","numero":"400314","region":"SC","location" :{"lat":50.75,"lon":-119.51667}}'
e3f312d9-612e-4523-a1ac-5c06ea4e543c: '{"name":"KINGFISHER","numero":"400315","region":"SC","location" :{"lat":50.73333,"lon":-118.73333}}'
7fe4378d-d0e3-4e07-8a57-f4037eb08034: '{"name":"J B D","numero":"300008","region":"SC","location" :{"lat":50.68333,"lon":-120.83333}}'
e078bd8c-dd09-4583-b64c-d4d91580209d: '{"name":"REA GOLD","numero":"300001","region":"SC","location" :{"lat":,"lon":}}'
bf9378c4-fdbf-4b05-8bc8-929a1b134035: '{"name":"SAM","numero":"300002","region":"","location" :{"lat":,"lon":}}'
f974659d-7836-4a77-83ac-2ef999d6cca9: '{"name":"MOTI: Mountainview Road Houston (#2283)","numero":"200517","region":"NW","location" :{"lat":54.3833,"lon":-126.6167}}'
f14d776e-270c-4b54-a155-eec2b3f157e1: '{"name":"MOTI: Bellreini Pit (Houston) #2282","numero":"200518","region":"NW","location" :{"lat":54.45,"lon":-126.5833}}'
291eab81-385f-4413-8247-96612912e87b: '{"name":"MOTI: Barber Meadow Gravel Pit (#2257)","numero":"200514","region":"NW","location" :{"lat":53.8833,"lon":-125.95}}'
b2f32f72-8e58-4706-a0bc-71e73cfa6f64: '{"name":"PC 55","numero":"300198","region":"SC","location" :{"lat":,"lon":}}'
d32f7dae-7f4a-4d37-a540-e2a6db310765: '{"name":"BLUEJAY","numero":"300192","region":"SC","location" :{"lat":,"lon":}}'
3d79f211-a705-441c-99c8-bec1c1a975e8: '{"name":"4- Sure Placer Claims","numero":"300377","region":"SW","location" :{"lat":49.86417,"lon":-121.61667}}'
d8d1b23a-d6ed-4e21-bb67-0db7f313d8d4: '{"name":"PL 1916, 2917","numero":"400036","region":"SC","location" :{"lat":,"lon":}}'
f41e8e6b-0dbc-43fb-a102-f36fb4f18116: '{"name":"SANWESRON","numero":"300379","region":"SC","location" :{"lat":51.03333,"lon":-122.46667}}'
19d50ba3-765f-4d06-b8f3-6e27a0efd8b2: '{"name":"YAK","numero":"300373","region":"SC","location" :{"lat":50.75,"lon":-122.75}}'
e41ba062-4479-415f-841e-24718f2e1b5f: '{"name":"CLUB","numero":"300374","region":"SC","location" :{"lat":51.76667,"lon":-121.25}}'
1d79ca4f-4124-412e-a4b8-28857aecf77d: '{"name":"HMTKO","numero":"300375","region":"SC","location" :{"lat":51.366667,"lon":-124.6}}'
f01af7ac-63dd-4375-b32d-9db5eab51ff7: '{"name":"PC 318815","numero":"300376","region":"SC","location" :{"lat":50.81667,"lon":-121.88333}}'
72be1b3e-4bde-4dcf-a707-c7435cbac8bf: '{"name":"Afton- Abacus","numero":"300004","region":"SC","location" :{"lat":50.64917,"lon":-120.5}}'
4f5dd0af-a0dc-4cff-bae8-817c7c30db34: '{"name":"MOT Upper Hat Creek Pit #0636","numero":"300370","region":"SC","location" :{"lat":,"lon":}}'
200a2187-2836-4e76-aac2-4a0e12502e00: '{"name":"LAKEVIEW","numero":"400213","region":"SC","location" :{"lat":,"lon":}}'
0e8573b1-556e-48a2-b05c-fc75a41dc181: '{"name":"LAVINGTON","numero":"400214","region":"SC","location" :{"lat":,"lon":}}'
8190dc51-d725-49a3-8439-e3f26cae941b: '{"name":"JUNIPER BELL","numero":"400207","region":"SC","location" :{"lat":49.25,"lon":-119.816667}}'
ff584711-502f-4f8b-96fc-bee3232cfd95: '{"name":"HEDLEY","numero":"400209","region":"SC","location" :{"lat":,"lon":}}'
19a261da-3415-4417-b7e9-cb9c2d57f1d7: '{"name":"HAZIEL","numero":"400210","region":"SC","location" :{"lat":,"lon":}}'
6bfbc69f-7912-41c0-b227-f4f5712a0cc2: '{"name":"VITAL","numero":"300545","region":"SC","location" :{"lat":51.90686,"lon":-121.39907}}'
eb63bd5b-e830-44e7-ae97-d3f951737c72: '{"name":"FELINE 1 TO 12","numero":"300546","region":"SC","location" :{"lat":50.71667,"lon":-121.07694}}'
33d77460-5fb0-4bd5-a693-5567c02279a3: '{"name":"Keystone (Jenny)","numero":"400309","region":"SE","location" :{"lat":51.45,"lon":-118.333333}}'
39af14b3-ac8b-4ec6-9a38-5811656f1ff0: '{"name":"SUMMERLAND","numero":"400310","region":"SC","location" :{"lat":49.566667,"lon":-120.05}}'
73eb7132-3c83-4743-a10e-c6b4624943c2: '{"name":"PML 569, 571","numero":"300185","region":"SC","location" :{"lat":,"lon":}}'
b6bde5e6-1ffd-4bed-9a77-9c69fc4a968b: '{"name":"LOCKET","numero":"300186","region":"SC","location" :{"lat":,"lon":}}'
fddd211c-318e-47b3-a138-bc4c51cb3bc7: '{"name":"BRX","numero":"300179","region":"SC","location" :{"lat":50.83333,"lon":-122.83333}}'
6b7f7ecc-6b87-40d8-88de-56e47cd6d6d5: '{"name":"Whynot","numero":"300180","region":"SC","location" :{"lat":50.94368,"lon":-122.75467}}'
7a5220a5-6089-45b7-b926-7c3f8a410fa2: '{"name":"PL 6910","numero":"300181","region":"SC","location" :{"lat":,"lon":}}'
443a59ef-5132-4082-9596-9d19b38cb959: '{"name":"Last Chance","numero":"300175","region":"SC","location" :{"lat":,"lon":}}'
14929356-0d4d-46cd-8aa6-04a23db7c51e: '{"name":"STANDARD CREEK","numero":"300193","region":"SC","location" :{"lat":50.91889,"lon":-122.6525}}'
ff3e5ec7-9ccc-4a49-a439-395564ba74aa: '{"name":"RAYFIELD","numero":"300187","region":"SC","location" :{"lat":,"lon":}}'
0c3b2ca1-001d-42f3-aeb0-0ce8fedca37e: '{"name":"WILLIAMSON","numero":"300188","region":"SC","location" :{"lat":,"lon":}}'
424cf87c-8fa4-4c8d-bb3f-7d15c5e42969: '{"name":"PAVILION","numero":"300190","region":"SC","location" :{"lat":,"lon":}}'
afe23632-99ef-49cc-8b4e-07f93ec9d18c: '{"name":"BELLA COOLA PIT","numero":"300183","region":"","location" :{"lat":52.3917,"lon":-125.4806}}'
00bd0457-6823-4d9a-bdae-4941df3fd4c3: '{"name":"PC 62 (EVA)","numero":"400290","region":"","location" :{"lat":49.0833,"lon":-119.1}}'
566ffeee-7769-4d27-a1ca-b182b0980cb6: '{"name":"LUCE","numero":"400283","region":"SC","location" :{"lat":,"lon":}}'
df8779fe-25cc-447b-ab28-dc21229471d2: '{"name":"POISON MOUNTAIN","numero":"300398","region":"","location" :{"lat":51.1667,"lon":-122.6333}}'
69205f10-7183-42e0-84ba-c5b81b10e945: '{"name":"VACANT","numero":"300371","region":"","location" :{"lat":,"lon":}}'
1038d91c-6c8f-4bed-95c4-72950b43c94d: '{"name":"PC 28 & 29","numero":"300155","region":"SC","location" :{"lat":,"lon":}}'
e9f575eb-e619-4623-aed7-8471b893d75a: '{"name":"LIZ","numero":"300157","region":"SC","location" :{"lat":,"lon":}}'
a9b31ae9-53d4-4d03-87d6-d147e1318aea: '{"name":"New Prosperity","numero":"300150","region":"SC","location" :{"lat":51.45,"lon":-123.6}}'
10aede50-329c-48ac-a67d-d6ca0927288c: '{"name":"PL 16081","numero":"300151","region":"SC","location" :{"lat":,"lon":}}'
b1fdec97-bc00-4f8c-9cf6-c18c0cde06c6: '{"name":"Earle Pit","numero":"300152","region":"SC","location" :{"lat":0,"lon":0}}'
c0a3f94e-aa08-40c6-9eb9-72b9fb534f18: '{"name":"PC 17","numero":"300153","region":"SC","location" :{"lat":,"lon":}}'
dbba9c68-55f3-4a8a-b163-51da5413797c: '{"name":"TR","numero":"300147","region":"SC","location" :{"lat":,"lon":}}'
9258ce9f-1bc0-4293-96fe-c1cae84ca3ec: '{"name":"GOLDMINE","numero":"300148","region":"SC","location" :{"lat":,"lon":}}'
55699744-02fd-4dc4-a41c-058fe35dfac1: '{"name":"K & H","numero":"400364","region":"SC","location" :{"lat":50.5,"lon":-118.7}}'
9798358c-cffc-45bd-9b3b-2f981f46dd17: '{"name":"PAULSON","numero":"400366","region":"SE","location" :{"lat":49.183333,"lon":-118.066667}}'
7d967227-cd86-4962-af28-763a2ed1555b: '{"name":"REY LAKE","numero":"400367","region":"SC","location" :{"lat":50.333333,"lon":-120.7}}'
8c0a4914-4dfb-41da-b975-02520b66e9ef: '{"name":"Merlin Group","numero":"400360","region":"SC","location" :{"lat":50.95,"lon":-118.88333}}'
36d029a6-267c-4818-9962-50f9ebbaad97: '{"name":"Armstrong Fish & Game Pit","numero":"400361","region":"SC","location" :{"lat":,"lon":}}'
223ccca9-ad68-4564-b96a-07edb54559a5: '{"name":"BROKEN PICK GROUP","numero":"400362","region":"SE","location" :{"lat":51.61667,"lon":-118.75}}'
1c874bab-bf78-48cd-a4d7-0b05a2e6ed51: '{"name":"CHALICE 1 CLAIM","numero":"700459","region":"SW","location" :{"lat":49.7625,"lon":-124}}'
ae7c112d-fc34-43c5-81b1-c4580e94d7fe: '{"name":"BRADNER ROAD (1582)","numero":"700441","region":"SW","location" :{"lat":49.02778,"lon":-122.43056}}'
86f50a75-aa49-403c-9150-426cb6ba5ca4: '{"name":"Seshal Creek Quarry","numero":"700442","region":"SW","location" :{"lat":49.35583,"lon":-121.46667}}'
4fd8174e-cdbc-4545-b0ca-5507509db381: '{"name":"GUN","numero":"300176","region":"SC","location" :{"lat":,"lon":}}'
f1c1c211-3773-439e-be1a-8023b3ae16d2: '{"name":"DAM","numero":"300178","region":"SC","location" :{"lat":,"lon":}}'
bb8c724b-cbc1-40d2-86ea-bc3ee0eeba01: '{"name":"GANG RANCH","numero":"300170","region":"SC","location" :{"lat":,"lon":}}'
c533cf98-b69d-4c8c-b894-218e7c6ed1e4: '{"name":"PILLDOLLA CLAIMS","numero":"700446","region":"SW","location" :{"lat":50.3,"lon":-124.11667}}'
9b83b90d-d4e9-47a0-a8af-d01799d428e1: '{"name":"Ross Road (2050)","numero":"700435","region":"SW","location" :{"lat":49.04111,"lon":-122.40528}}'
bd935cc2-99a8-4430-8277-1ba0349f3231: '{"name":"HUNTINGDON ROAD (29233)","numero":"700438","region":"SW","location" :{"lat":49.01694,"lon":-122.41528}}'
e8738aff-8c47-4f9d-85a5-a0c9a56a5b64: '{"name":"DEWDNEY TRUNK ROAD (10474)","numero":"700440","region":"SW","location" :{"lat":49.19306,"lon":-122.32639}}'
5a7dd66f-5d17-4d49-8e85-7d7bb604f892: '{"name":"Wolfe Road - Skway Reserve No. 5","numero":"700431","region":"SW","location" :{"lat":49.16944,"lon":-122}}'
c9b1cbaa-eec2-4c0f-b4e1-7eff3a95d1b2: '{"name":"IMMEL ROAD","numero":"700433","region":"SW","location" :{"lat":,"lon":}}'
6d1a9bc9-2dbb-446d-9c53-d4d7c33149e2: '{"name":"Cayoosh/Condor Pit 2","numero":"300392","region":"SC","location" :{"lat":50.35167,"lon":-121.99417}}'
6ce122a9-c831-49ac-9fab-95d4f5dcd783: '{"name":"Cayoosh/Condor Pit 1","numero":"300393","region":"SC","location" :{"lat":50.64111,"lon":-122.04111}}'
fef4e679-e945-408a-952d-0919eb9d2c25: '{"name":"PC 313341","numero":"300395","region":"SC","location" :{"lat":51.25,"lon":-122.18333}}'
ad4f0461-a989-4c27-9207-b98df8e0326f: '{"name":"PL 17105 17106 17107","numero":"300174","region":"SC","location" :{"lat":,"lon":}}'
5ac901ca-59fd-48d5-b623-543733112402: '{"name":"PC 57,58","numero":"300167","region":"SC","location" :{"lat":,"lon":}}'
8945ae89-6ac5-4918-a555-0fec6beacd8e: '{"name":"GNAWED MTN","numero":"300169","region":"","location" :{"lat":,"lon":}}'
f840fd5a-8136-47f5-907a-28f3a4f3a800: '{"name":"Camp","numero":"300162","region":"SC","location" :{"lat":51.76667,"lon":-121.83333}}'
392d1ede-1cfe-4915-8b72-bf39945b1fcd: '{"name":"PML 440","numero":"300035","region":"SC","location" :{"lat":51.7627,"lon":-121.1115}}'
b6980c5f-7121-4037-8a63-4406dca172bc: '{"name":"PC 70","numero":"300142","region":"SC","location" :{"lat":,"lon":}}'
4c0bf586-15c5-4e1d-b72f-6e1b81f63624: '{"name":"PL 1369","numero":"300143","region":"SC","location" :{"lat":50.762,"lon":-120.115}}'
70af5134-a822-4123-8221-f5142b9a72a9: '{"name":"SPRING","numero":"400255","region":"SC","location" :{"lat":,"lon":}}'
56327342-e09b-4c1a-a6c7-6f3ca36dde84: '{"name":"BLUEJAY","numero":"400256","region":"SC","location" :{"lat":,"lon":}}'
78a87a3b-5502-4e60-bce7-292476d498eb: '{"name":"JAN","numero":"400257","region":"SC","location" :{"lat":,"lon":}}'
cbd00897-6d87-4701-ba8a-7d3bc56b0dbe: '{"name":"DOME","numero":"400258","region":"SC","location" :{"lat":50.068056,"lon":-119.667222}}'
16df0bc1-9c66-4a3f-81cd-1a5c2060dfc6: '{"name":"Miny","numero":"400251","region":"SC","location" :{"lat":,"lon":}}'
6e0f0f93-9444-4dbe-873f-a2a2c867c88c: '{"name":"KILLICK","numero":"400253","region":"SC","location" :{"lat":51.05,"lon":-119.53333}}'
505c3a4f-2279-4453-bc88-55990e587e82: '{"name":"LJ","numero":"300020","region":"SC","location" :{"lat":,"lon":}}'
79b79007-847d-40bf-a400-d08d2e07c2c6: '{"name":"PL 744","numero":"300014","region":"SC","location" :{"lat":,"lon":}}'
b70ffc03-05a2-4beb-8cc3-c11121276709: '{"name":"PL 16070, 16089","numero":"300015","region":"SC","location" :{"lat":,"lon":}}'
4e1fc772-06eb-41e9-955a-39626689da55: '{"name":"PL 16037","numero":"300016","region":"SC","location" :{"lat":,"lon":}}'
8304a106-cebd-4f15-a835-6e862e7652fe: '{"name":"EMPIRE VALLEY","numero":"300011","region":"SC","location" :{"lat":,"lon":}}'
8f0c34b1-67a9-455c-af77-c9258d350a50: '{"name":"BOBCAT","numero":"300005","region":"SC","location" :{"lat":,"lon":}}'
244fb0d6-b1a3-448d-a3fb-a9b965f448ba: '{"name":"PC 69661","numero":"400122","region":"SC","location" :{"lat":,"lon":}}'
df487cef-8aed-4d3b-b5df-d5ad66c9f3c5: '{"name":"Alex 1","numero":"400123","region":"SC","location" :{"lat":50.2,"lon":-118.38333}}'
8355761b-0be3-4b37-89eb-c4ae765e7bb2: '{"name":"WALMSLEY ROAD PIT","numero":"700059","region":"SW","location" :{"lat":,"lon":}}'
fa3270c5-dd3d-451b-9350-17366064a483: '{"name":"AK 1, 2 AND 3 CLAIMS","numero":"700060","region":"SW","location" :{"lat":49.288056,"lon":-122.366667}}'
02b21897-836b-4ecc-9e8d-4a57cb7e40bf: '{"name":"LAVA CLAIMS","numero":"700061","region":"SW","location" :{"lat":50.6777778,"lon":-122.4333333}}'
1ea87bb5-65ed-4fe7-a783-8fa57d7b3554: '{"name":"ALLENDALE","numero":"400117","region":"SC","location" :{"lat":,"lon":}}'
f3daa839-6404-4ed9-8bc0-6da71fe730c4: '{"name":"P69579","numero":"400119","region":"SC","location" :{"lat":,"lon":}}'
59ba26e8-00b5-4bf0-879f-25a41992ac77: '{"name":"DEANNA","numero":"400120","region":"SC","location" :{"lat":49.38333,"lon":-119.91667}}'
8bfc6969-5e45-444f-b473-2c1f6ada4b55: '{"name":"PC 88","numero":"400113","region":"","location" :{"lat":,"lon":}}'
d03b6101-8c8c-4ed6-a9e5-e5cdb7519ee1: '{"name":"GRIZZ","numero":"400115","region":"SC","location" :{"lat":,"lon":}}'
b25c27c8-504c-411e-9c97-165686ddd2d7: '{"name":"PILOT GOLD","numero":"400116","region":"SC","location" :{"lat":50.36667,"lon":-119.98333}}'
93afd781-ece4-41ec-b54a-e28aba1a5fa7: '{"name":"PEMBERTON MINERAL","numero":"700298","region":"SW","location" :{"lat":50.44056,"lon":-122.83333}}'
d8c5459b-c517-4c95-9b9d-dd6b5d9a6841: '{"name":"DEWDNEY TRUNK ROAD (10969)","numero":"700287","region":"SW","location" :{"lat":49.20333,"lon":-122.31667}}'
f23e37c3-02c7-4a4c-8c5a-f159a5d373c8: '{"name":"DISTRICT LOT 64","numero":"700290","region":"SW","location" :{"lat":49.53861,"lon":-121.4325}}'
b2cd294b-906a-40e4-a691-b8220e19d068: '{"name":"MOSQUITO KING GROUP","numero":"400743","region":"SC","location" :{"lat":51.1,"lon":-119.51667}}'
d8c8d838-7a3c-4c56-bceb-9eef2fdd5804: '{"name":"PL 315346","numero":"400744","region":"SE","location" :{"lat":51.62541,"lon":-118.17973}}'
00d0b203-5a5b-4a07-906c-d38befe87a34: '{"name":"PC 327896","numero":"400697","region":"SC","location" :{"lat":50.183333,"lon":-118.533333}}'
c76caa18-12b1-4db9-bf08-9ddbaeec5da7: '{"name":"Gleneden Pit","numero":"400698","region":"SC","location" :{"lat":50.71442,"lon":-119.3631}}'
188f53c6-1096-4e06-905e-8abc22fa61ac: '{"name":"PC 349680","numero":"400699","region":"SC","location" :{"lat":51.02639,"lon":-119.44722}}'
d6517228-3261-4399-859e-43fadde00de7: '{"name":"BRIT","numero":"400254","region":"SC","location" :{"lat":,"lon":}}'
b04fb1fe-2132-4725-8dfb-59f0723d9766: '{"name":"AMY18","numero":"400248","region":"SC","location" :{"lat":,"lon":}}'
a8c8691c-0c18-4ccd-b1a7-12d45ac93bf8: '{"name":"PL 1931","numero":"400249","region":"SC","location" :{"lat":,"lon":}}'
f22b7ff7-bb59-4710-9e93-91b42fcfddb3: '{"name":"PRYMER Pit","numero":"400243","region":"SC","location" :{"lat":,"lon":}}'
e1885e40-7dfc-44db-abd0-5892b5b1346d: '{"name":"Brett","numero":"400046","region":"SC","location" :{"lat":50.2297,"lon":-119.663}}'
7cdbd055-45fb-4e55-9446-50bdbfba83a2: '{"name":"WHITE ELEPHANT","numero":"400048","region":"SC","location" :{"lat":,"lon":}}'
5e9a2690-e49a-4b93-aeb9-2cf7a6b2e540: '{"name":"PC 49 Gold","numero":"400041","region":"SC","location" :{"lat":,"lon":}}'
de3c96d1-5ede-4a02-ba32-206a64cbea83: '{"name":"EQUESIS","numero":"400043","region":"SC","location" :{"lat":,"lon":}}'
ce374dc8-9a47-4e92-919e-6046597749cf: '{"name":"H CLAIM","numero":"400044","region":"SC","location" :{"lat":50.25,"lon":-118.95}}'
41fbcd89-75c7-4a6c-9cc2-8bb4e436820f: '{"name":"OUTBACK","numero":"400178","region":"SC","location" :{"lat":,"lon":}}'
550f3a2a-be7a-4c7e-a883-1395dcee2602: '{"name":"PINTO","numero":"400179","region":"SC","location" :{"lat":,"lon":}}'
562b63ba-e709-44f8-b7cd-0deb52006594: '{"name":"ALPINE","numero":"300526","region":"SC","location" :{"lat":50.1555,"lon":-121.81917}}'
beea0248-7a57-45ef-8736-c3bda3c6b06b: '{"name":"STONE","numero":"300521","region":"SC","location" :{"lat":51.966667,"lon":-120.766667}}'
b77ce281-34f4-4305-85e5-b365d020ba25: '{"name":"EMILY","numero":"300522","region":"SC","location" :{"lat":52.08333,"lon":-121.1}}'
df1d263e-bd99-408e-a56b-98577fa10c59: '{"name":"SHILO","numero":"400017","region":"SC","location" :{"lat":,"lon":}}'
a8637987-f68c-47d4-81d4-28b015db72d9: '{"name":"Revelstoke Land Fill Pit","numero":"400018","region":"SE","location" :{"lat":51.08917,"lon":-118.13361}}'
4c0c870d-e61b-4f25-9724-daa1d77e4b44: '{"name":"HEDLEY GOLD TAILINGS","numero":"400012","region":"SC","location" :{"lat":49.34667,"lon":-120.07583}}'
91a1dc20-e38d-492b-963d-4b1ca00eedf2: '{"name":"SPOD","numero":"400110","region":"SC","location" :{"lat":49.96667,"lon":-119.51667}}'
299088cd-1eba-4854-a39f-08c8fa50560a: '{"name":"PC 312816","numero":"300458","region":"SC","location" :{"lat":50.71301,"lon":-122.8477}}'
8177fb7a-34a3-41de-a985-6d9fb45a6a36: '{"name":"PENNY #1","numero":"300459","region":"SC","location" :{"lat":,"lon":}}'
cfbf526a-a2ca-44ee-872f-b3c312b380f5: '{"name":"JORDAN RIVER","numero":"400304","region":"SE","location" :{"lat":51.125,"lon":-118.4}}'
ad1837c1-9cbb-4a49-902f-7a55b0dd2867: '{"name":"APS","numero":"400305","region":"SC","location" :{"lat":,"lon":}}'
33607b24-c670-45d7-8ed7-67ee53f79dea: '{"name":"KET","numero":"400300","region":"SE","location" :{"lat":49.020833,"lon":-119.108333}}'
91e0f95b-a4d6-490e-945f-661ab67f12dd: '{"name":"DONALD","numero":"400093","region":"SC","location" :{"lat":,"lon":}}'
a67357ff-ddc9-41b0-a01b-5b3f6f168e54: '{"name":"DUKE","numero":"400094","region":"SC","location" :{"lat":,"lon":}}'
9afeb293-10b8-4011-b550-3954fdade824: '{"name":"WOLF","numero":"400095","region":"SC","location" :{"lat":,"lon":}}'
4d1acefb-caed-46aa-a0be-803789c1966c: '{"name":"Delete","numero":"700619","region":"","location" :{"lat":,"lon":}}'
2a0b0011-aaae-4797-9f8f-549b4f0d29e1: '{"name":"GOLDEN MOUNTAIN GROUP","numero":"700621","region":"SW","location" :{"lat":49.2541667,"lon":-122.4166667}}'
a36c96a9-63f3-4aec-969e-f6700cd56046: '{"name":"SILVER PEAK","numero":"700610","region":"SW","location" :{"lat":49.30667,"lon":-121.46556}}'
d06a2ac3-5449-4d06-830d-87978bf55cca: '{"name":"264TH STREET (542)","numero":"700611","region":"SW","location" :{"lat":49.0166667,"lon":-122.4833333}}'
1af703f3-0b7b-4fa3-a4a2-c597187d21e7: '{"name":"KEYSTONE AVENUE (31489/31587)","numero":"700614","region":"SW","location" :{"lat":49.18363,"lon":-122.3536}}'
18c5100e-da7e-4c9b-999f-8b110303d608: '{"name":"SALAL MINERAL CLAIMS","numero":"700607","region":"SW","location" :{"lat":50.81333,"lon":-123.26667}}'
d7e3b023-df66-4c11-a632-1c2c30e73e9f: '{"name":"Boulder Recover Project - Janie","numero":"700609","region":"SW","location" :{"lat":49.65,"lon":-121.21667}}'
a822ab29-ac5d-4be0-9090-9aa0d14fc195: '{"name":"IMMEL ROAD (3160)","numero":"700601","region":"SW","location" :{"lat":49.06778,"lon":-122.26667}}'
7eee11ca-0ed8-4723-9af9-86c266f59fb2: '{"name":"PC 9","numero":"700266","region":"SW","location" :{"lat":49.62405,"lon":-121.39603}}'
1683ceb1-0dad-4613-8963-aa659ef0010c: '{"name":"SIMILKAMEEN","numero":"400038","region":"SC","location" :{"lat":,"lon":}}'
83c43611-e0a7-4da7-b50f-72e311496612: '{"name":"YETI, ZANDU","numero":"400039","region":"SC","location" :{"lat":,"lon":}}'
3f11de07-ed37-4128-81a2-b5eaafeb0495: '{"name":"PL 6029","numero":"400033","region":"SC","location" :{"lat":,"lon":}}'
4735846e-db70-46c9-b44a-b6807c615f9d: '{"name":"Ashton Copper-Gold","numero":"300372","region":"SC","location" :{"lat":50.25,"lon":-121.4}}'
cc38110b-53ef-4389-b458-f5f1af0ff0e4: '{"name":"MINERS REVENUE","numero":"300364","region":"SC","location" :{"lat":50.58333,"lon":-122.15}}'
f9a9a01c-100d-4f5d-a076-4629a53b1934: '{"name":"AT","numero":"300145","region":"SC","location" :{"lat":,"lon":}}'
636a24a0-ff25-40f0-b3a1-1c31cd2d96fa: '{"name":"MIDAS","numero":"300138","region":"SC","location" :{"lat":,"lon":}}'
0cd3e611-6303-494b-9f01-4ef7ec2dff50: '{"name":"PL 17084","numero":"300140","region":"SC","location" :{"lat":,"lon":}}'
19457785-851d-4e95-9151-09870a8d66e3: '{"name":"SMJ","numero":"300141","region":"SC","location" :{"lat":52.6,"lon":-124.16667}}'
b870eb33-c890-4f13-b2b2-07487bb9fd33: '{"name":"ASTRO","numero":"400013","region":"SC","location" :{"lat":49.38333,"lon":-119.78333}}'
7557deb4-02d3-40a5-84a4-0a190f2afcd0: '{"name":"OROFINO MTN.","numero":"400014","region":"SC","location" :{"lat":49.25,"lon":-119.683333}}'
45d17f62-b29f-44ae-8f07-933da64aef2e: '{"name":"Rose Munro Lake","numero":"400008","region":"SC","location" :{"lat":49.73917,"lon":-119.95278}}'
1853c382-7719-4599-bfa7-d42de2262f01: '{"name":"GOLD DROP/NORTH STAR","numero":"400009","region":"SC","location" :{"lat":,"lon":}}'
779572a3-a909-4eb9-9dd7-ae9e339dc564: '{"name":"Peak Group","numero":"300097","region":"SC","location" :{"lat":,"lon":}}'
2bf72edc-22ac-4b17-9f53-174c4e45fd60: '{"name":"CHICKADEE","numero":"300099","region":"SC","location" :{"lat":,"lon":}}'
e5b4e8de-0da6-4506-883d-7e0fa2e5b5b8: '{"name":"ARROWSTONE","numero":"300100","region":"SC","location" :{"lat":51.03667,"lon":-53}}'
7aa43a3e-38f0-4853-9eee-61a725e8f217: '{"name":"P 69608","numero":"400089","region":"SC","location" :{"lat":,"lon":}}'
26e103e9-08a0-4883-abbf-b1c325d89a1c: '{"name":"OK CLAIM","numero":"400090","region":"SC","location" :{"lat":,"lon":}}'
